shelter_id,shelter_name,recorded_county,lat,lon,county_in_bounds,far_from_county,geocode_success,geocoded_county,geocoded_township,display_name,county_match,township_match,issues,data_source,shelter_township
1,五峰活動中心,新竹縣,24.386,121.073,True,False,True,苗栗縣,泰安鄉,"梅園村, 泰安鄉, 苗栗縣, 365012, 臺灣",False,False,"['縣市不匹配: 記錄=新竹縣, 實際=苗栗縣']",cleaned,
3,南坑村集會所暨南外社區活動中心,新竹縣北埔鄉,24.6725,121.0561,False,True,True,新竹縣,北埔鄉,"南坑村集會所暨南外社區活動中心, 竹37, 小南坑, 南坑村, 北埔鄉, 新竹縣, 314, 臺灣",True,False,"['鄉鎮不匹配: 名稱=南坑村集會所暨南外社區, 實際=北埔鄉', '座標遠離記錄縣市邊界（超出11公里以上）']",cleaned,南坑村集會所暨南外社區
4,烏坵鄉小坵村活動中心,金門縣烏坵鄉,24.98,119.47,False,True,True,金門縣,烏坵鄉,"小坵村, 烏坵鄉, 金門縣, 臺灣",True,True,['座標遠離記錄縣市邊界（超出11公里以上）'],cleaned,烏坵鄉
5,金門縣烏坵鄉公所大廳,金門縣烏坵鄉,24.988739,119.453178,False,True,True,金門縣,烏坵鄉,"1號, 大坵, 大坵村, 烏坵鄉, 金門縣, 臺灣",True,True,['座標遠離記錄縣市邊界（超出11公里以上）'],cleaned,金門縣烏坵鄉
6,霞雲社區活動中心,桃園市復興區,24.814018,121.406238,False,True,True,桃園市,霞雲里,"庫志道路, 庫志, 霞雲里, 復興區, 桃園市, 336, 臺灣",True,False,"['鄉鎮不匹配: 名稱=霞雲社區, 實際=霞雲里', '座標遠離記錄縣市邊界（超出11公里以上）']",cleaned,霞雲社區
7,澤仁里辦公處,桃園市復興區,24.820601,121.351987,False,True,True,桃園市,澤仁里,"停車場路, 角板, 澤仁里, 復興區, 桃園市, 336041, 臺灣",True,False,['座標遠離記錄縣市邊界（超出11公里以上）'],cleaned,
8,奎輝里活動中心,桃園市復興區,24.797047,121.334302,False,True,True,桃園市,奎輝里,"357號, 羅馬路三段, 中奎輝, 奎輝里, 復興區, 桃園市, 336, 臺灣",True,False,['座標遠離記錄縣市邊界（超出11公里以上）'],cleaned,
9,高義教會,桃園市復興區,24.706112,121.354462,False,True,True,桃園市,高義里,"50號, 高義蘭, 高義里, 復興區, 桃園市, 33644, 臺灣",True,False,['座標遠離記錄縣市邊界（超出11公里以上）'],cleaned,
18,上大社區活動中心,桃園市觀音區,24.978234,121.147333,False,True,True,桃園市,上大里,"51號, 大湖路一段530巷, 卓厝, 上大里, 觀音區, 桃園市, 328005, 臺灣",True,False,"['鄉鎮不匹配: 名稱=上大社區, 實際=上大里', '座標遠離記錄縣市邊界（超出11公里以上）']",cleaned,上大社區
19,武威社區活動中心,桃園市觀音區,25.028242,121.073317,False,True,True,桃園市,武威里,"26號, 武威一路, 廖厝, 武威里, 觀音區, 桃園市, 328, 臺灣",True,False,"['鄉鎮不匹配: 名稱=武威社區, 實際=武威里', '座標遠離記錄縣市邊界（超出11公里以上）']",cleaned,武威社區
20,塔腳社區活動中心,桃園市觀音區,25.049298,121.154708,False,True,True,桃園市,塔腳里,"39號, 塔腳路, 塔子腳, 塔腳里, 觀音區, 桃園市, 32847, 臺灣",True,False,"['鄉鎮不匹配: 名稱=塔腳社區, 實際=塔腳里', '座標遠離記錄縣市邊界（超出11公里以上）']",cleaned,塔腳社區
21,廣福社區活動中心,桃園市觀音區,25.019018,121.153383,False,True,True,桃園市,廣福里,"廣福市民活動中心, 6, 福山路二段403巷, 陂內, 廣福里, 觀音區, 桃園市, 328010, 臺灣",True,False,"['鄉鎮不匹配: 名稱=廣福社區, 實際=廣福里', '座標遠離記錄縣市邊界（超出11公里以上）']",cleaned,廣福社區
22,草漯國民小學,桃園市觀音區,25.045941,121.142939,False,True,True,桃園市,草新里,"1462號, 新生路, 許厝, 草新里, 觀音區, 桃園市, 32847, 臺灣",True,False,['座標遠離記錄縣市邊界（超出11公里以上）'],cleaned,
23,上大國民小學,桃園市觀音區,24.979129,121.146755,False,True,True,桃園市,上大里,"540號, 大湖路一段, 上大堀, 上大里, 觀音區, 桃園市, 328005, 臺灣",True,False,['座標遠離記錄縣市邊界（超出11公里以上）'],cleaned,
24,崙坪國民小學,桃園市觀音區,24.999596,121.162676,False,True,True,桃園市,崙坪里,"123號, 學府路, 崙坪, 崙坪里, 觀音區, 桃園市, 328005, 臺灣",True,False,['座標遠離記錄縣市邊界（超出11公里以上）'],cleaned,
25,富林國民小學,桃園市觀音區,25.062195,121.1285,False,True,True,桃園市,樹林里,"12號, 新村路二段, 觀音產業園區, 樹林里, 觀音區, 桃園市, 32844, 臺灣",True,False,['座標遠離記錄縣市邊界（超出11公里以上）'],cleaned,
26,樹林國民小學,桃園市觀音區,25.062176,121.128468,False,True,True,桃園市,樹林里,"12號, 新村路二段, 觀音產業園區, 樹林里, 觀音區, 桃園市, 32844, 臺灣",True,False,['座標遠離記錄縣市邊界（超出11公里以上）'],cleaned,
27,觀音區公所綠資源中心,桃園市觀音區,25.028281,121.083597,False,True,True,桃園市,觀音里,"觀音區公所, 2, 文化路, 石坡頭, 觀音里, 觀音區, 桃園市, 328, 臺灣",True,False,"['鄉鎮不匹配: 名稱=觀音區, 實際=觀音里', '座標遠離記錄縣市邊界（超出11公里以上）']",cleaned,觀音區
29,高雄市前鎮區光華國民小學,高雄市前鎮區,22.615,120.32,False,True,True,高雄市,前鎮區,"57, 廣西路, 竹中里, 前鎮區, 高雄市, 806, 臺灣",True,False,"['鄉鎮不匹配: 名稱=高雄市前鎮, 實際=前鎮區', '座標遠離記錄縣市邊界（超出11公里以上）']",cleaned,高雄市前鎮
30,大武國小,臺東縣大武鄉,22.365009,120.905497,False,True,True,臺東縣,大武鄉,"大武國小, 49之2, 民族街, 大武村, 大武鄉, 臺東縣, 965003, 臺灣",True,False,['座標遠離記錄縣市邊界（超出11公里以上）'],cleaned,
31,尖山國小操場,苗栗縣頭份市,24.64686,120.894048,False,True,True,苗栗縣,頭份市,"鹿廚坑步道, 濫坑里, 頭份市, 苗栗縣, 361030, 臺灣",True,False,['座標遠離記錄縣市邊界（超出11公里以上）'],cleaned,
32,高雄市小港區鳳林國民小學,高雄市小港區,22.527,120.343,False,True,True,高雄市,小港區,"188之1號, 鳳林路, 鳳源里, 小港區, 大林蒲, 高雄市, 812, 臺灣",True,True,['座標遠離記錄縣市邊界（超出11公里以上）'],cleaned,高雄市小港區
45,大武社區活動中心,屏東縣霧臺鄉,22.757534,120.754782,False,True,True,屏東縣,霧臺鄉,"13之4號, 小山巷, 大武村, 霧臺鄉, 屏東縣, 臺灣",True,False,"['鄉鎮不匹配: 名稱=大武社區, 實際=霧臺鄉', '座標遠離記錄縣市邊界（超出11公里以上）']",cleaned,大武社區
46,和平國小,花蓮縣秀林鄉,24.308073,121.748879,False,True,True,花蓮縣,秀林鄉,"克尼布路, 克尼布, 和平村, 秀林鄉, 花蓮縣, 972, 臺灣",True,False,['座標遠離記錄縣市邊界（超出11公里以上）'],cleaned,
47,佳義社區活動中心,屏東縣瑪家鄉,22.653475,120.630874,False,True,True,屏東縣,內埔鄉,"11號, 泰平巷, 佳義村, 老埤村, 內埔鄉, 屏東縣, 91201, 臺灣",True,False,"['鄉鎮不匹配: 名稱=佳義社區, 實際=內埔鄉', '座標遠離記錄縣市邊界（超出11公里以上）']",cleaned,佳義社區
48,中東社區活動中心,彰化縣員林市,23.971414,120.599689,False,True,True,彰化縣,員林市,"86號, 山腳路五段, 江厝, 中東里, 員林市, 彰化縣, 510019, 臺灣",True,False,"['鄉鎮不匹配: 名稱=中東社區, 實際=員林市', '座標遠離記錄縣市邊界（超出11公里以上）']",cleaned,中東社區
49,崇實高工體育館,彰化縣員林市,23.961057,120.574848,False,True,True,彰化縣,員林市,"103, 育英路, 新興里, 員林市, 彰化縣, 510, 臺灣",True,False,['座標遠離記錄縣市邊界（超出11公里以上）'],cleaned,
50,東芳國小,彰化縣彰化市,24.062538,120.516345,False,True,True,彰化縣,彰化市,"45, 彰鹿路, 頂莿桐脚, 東芳里, 彰化市, 彰化縣, 500, 臺灣",True,False,['座標遠離記錄縣市邊界（超出11公里以上）'],cleaned,
51,三義社區活動中心,彰化縣員林市,23.95268,120.563531,False,True,True,彰化縣,員林市,"110號, 員鹿路245巷, 三義里, 員林市, 彰化縣, 51041, 臺灣",True,False,"['鄉鎮不匹配: 名稱=三義社區, 實際=員林市', '座標遠離記錄縣市邊界（超出11公里以上）']",cleaned,三義社區
52,大同國中,彰化縣員林市,23.963213,120.579502,False,True,True,彰化縣,員林市,"345, 大同路一段, 黃厝, 三和里, 員林市, 彰化縣, 510, 臺灣",True,False,['座標遠離記錄縣市邊界（超出11公里以上）'],cleaned,
53,員林農工體育館,彰化縣員林市,23.955187,120.581692,False,True,True,彰化縣,員林市,"313, 員水路二段, 松子腳, 萬年里, 員林市, 彰化縣, 510, 臺灣",True,False,['座標遠離記錄縣市邊界（超出11公里以上）'],cleaned,
54,員林市員東國小,彰化縣員林市,23.961879,120.587309,False,True,True,彰化縣,員林市,"12號, 員東路二段, 浮圳里, 員林市, 彰化縣, 510019, 臺灣",True,False,['座標遠離記錄縣市邊界（超出11公里以上）'],cleaned,
55,員林市員林國中活動中心,彰化縣員林市,23.979184,120.557085,False,True,True,彰化縣,員林市,"10號, 員大路二段46巷299弄, 大埔厝, 大埔里, 員林市, 彰化縣, 515, 臺灣",True,False,['座標遠離記錄縣市邊界（超出11公里以上）'],cleaned,
56,員林市員林國小,彰化縣員林市,23.960059,120.57921,False,True,True,彰化縣,員林市,"221, 三民東街, 仁愛里, 員林市, 彰化縣, 510, 臺灣",True,False,['座標遠離記錄縣市邊界（超出11公里以上）'],cleaned,
57,健康公園,臺中市南區,24.119757,120.667553,False,True,True,臺中市,南區,"健康公園, 忠明南路, 平和里, 南區, 樹王, 臺中市, 402, 臺灣",True,False,['座標遠離記錄縣市邊界（超出11公里以上）'],cleaned,
58,屏東市信義國小,屏東縣屏東市,22.68523,120.49197,False,True,True,屏東縣,屏東市,"262號, 信義路, 北勢里, 屏東市, 屏東縣, 900, 臺灣",True,False,['座標遠離記錄縣市邊界（超出11公里以上）'],cleaned,
59,光隆營區,臺中市太平區,24.1112,120.7305,False,True,True,臺中市,太平區,"1022號, 光興路, 光隆里, 太平區, 長億里, 臺中市, 411, 臺灣",True,False,"['鄉鎮不匹配: 名稱=光隆營區, 實際=太平區', '座標遠離記錄縣市邊界（超出11公里以上）']",cleaned,光隆營區
60,大快官藝文館,彰化縣彰化市,24.068651,120.613159,False,True,True,彰化縣,彰化市,"73號, 彰南路五段2巷, 學校坑, 快官里, 彰化市, 彰化縣, 41462, 臺灣",True,False,['座標遠離記錄縣市邊界（超出11公里以上）'],cleaned,
61,彰德國中勤學樓、育英樓穿堂,彰化縣彰化市,24.08054,120.589342,False,True,True,彰化縣,彰化市,"97號, 彰南路二段512巷, 三星崙, 香山里, 彰化市, 彰化縣, 50077, 臺灣",True,False,['座標遠離記錄縣市邊界（超出11公里以上）'],cleaned,
62,介壽社區活動中心,彰化縣彰化市,24.070873,120.551727,False,True,True,彰化縣,彰化市,"國立彰化高級中學, 78, 中興路, 建寳莊, 介壽里, 彰化市, 彰化縣, 50057, 臺灣",True,False,"['鄉鎮不匹配: 名稱=介壽社區, 實際=彰化市', '座標遠離記錄縣市邊界（超出11公里以上）']",cleaned,介壽社區
63,國聖國小,彰化縣彰化市,24.092292,120.568089,False,True,True,彰化縣,彰化市,"608號, 中山路三段, 國聖里, 彰化市, 彰化縣, 50068, 臺灣",True,False,['座標遠離記錄縣市邊界（超出11公里以上）'],cleaned,
64,石牌國小,彰化縣彰化市,24.058558,120.614942,False,True,False,,,,False,False,['座標遠離記錄縣市邊界（超出11公里以上）'],cleaned,
65,茄苳社區活動中心,彰化縣彰化市,24.10378,120.547944,False,True,False,,,,False,False,['座標遠離記錄縣市邊界（超出11公里以上）'],cleaned,
66,三民國小,彰化縣彰化市,24.085743,120.604547,False,True,False,,,,False,False,['座標遠離記錄縣市邊界（超出11公里以上）'],cleaned,
67,南北管戲曲音樂館,彰化縣彰化市,24.068206,120.529851,False,True,False,,,,False,False,['座標遠離記錄縣市邊界（超出11公里以上）'],cleaned,
68,牛埔社區活動中心,彰化縣彰化市,24.081368,120.597531,False,True,False,,,,False,False,['座標遠離記錄縣市邊界（超出11公里以上）'],cleaned,
69,桃源社區活動中心,彰化縣彰化市,24.072547,120.559047,False,True,False,,,,False,False,['座標遠離記錄縣市邊界（超出11公里以上）'],cleaned,
70,南興社區活動中心,彰化縣彰化市,24.056604,120.533189,False,True,False,,,,False,False,['座標遠離記錄縣市邊界（超出11公里以上）'],cleaned,
71,快官社區活動中心,彰化縣彰化市,24.068422,120.612013,False,True,False,,,,False,False,['座標遠離記錄縣市邊界（超出11公里以上）'],cleaned,
72,福山社區活動中心,彰化縣彰化市,24.082668,120.571394,False,True,False,,,,False,False,['座標遠離記錄縣市邊界（超出11公里以上）'],cleaned,
73,延和社區活動中心,彰化縣彰化市,24.059306,120.538252,False,True,False,,,,False,False,['座標遠離記錄縣市邊界（超出11公里以上）'],cleaned,
74,泰和國小,彰化縣彰化市,24.092496,120.55168,False,True,False,,,,False,False,['座標遠離記錄縣市邊界（超出11公里以上）'],cleaned,
75,彰興國中,彰化縣彰化市,24.059274,120.538251,False,True,False,,,,False,False,['座標遠離記錄縣市邊界（超出11公里以上）'],cleaned,
76,信義國中小,彰化縣彰化市,24.062723,120.52814,False,True,False,,,,False,False,['座標遠離記錄縣市邊界（超出11公里以上）'],cleaned,
77,雅溝社區活動中心,彰化縣和美鎮,24.099707,120.492521,False,True,False,,,,False,False,['座標遠離記錄縣市邊界（超出11公里以上）'],cleaned,
80,港口社區活動中心,屏東縣滿州鄉,21.9912,120.8271,False,True,False,,,,False,False,['座標遠離記錄縣市邊界（超出11公里以上）'],cleaned,
81,恆春國中收容所,屏東縣恆春鎮,22.0031,120.7475,False,True,False,,,,False,False,['座標遠離記錄縣市邊界（超出11公里以上）'],cleaned,
82,恆春鎮公所,屏東縣恆春鎮,22.0038,120.7474,False,True,False,,,,False,False,['座標遠離記錄縣市邊界（超出11公里以上）'],cleaned,
83,永靖社區活動中心,屏東縣滿州鄉,22.0052,120.8092,False,True,False,,,,False,False,['座標遠離記錄縣市邊界（超出11公里以上）'],cleaned,
84,永港國民小學,屏東縣滿州鄉,22.005679,120.817377,False,True,False,,,,False,False,['座標遠離記錄縣市邊界（超出11公里以上）'],cleaned,
85,恒春國小收容所,屏東縣恆春鎮,22.0064,120.7466,False,True,False,,,,False,False,['座標遠離記錄縣市邊界（超出11公里以上）'],cleaned,
86,僑勇國小收容所,屏東縣恆春鎮,22.0087,120.7442,False,True,False,,,,False,False,['座標遠離記錄縣市邊界（超出11公里以上）'],cleaned,
87,滿州國民小學,屏東縣滿州鄉,22.020382,120.838101,False,True,False,,,,False,False,['座標遠離記錄縣市邊界（超出11公里以上）'],cleaned,
88,屏東縣滿州鄉公所,屏東縣滿州鄉,22.0209,120.8386,False,True,False,,,,False,False,['座標遠離記錄縣市邊界（超出11公里以上）'],cleaned,
89,舊蘭嶼國小,臺東縣蘭嶼鄉,22.0211,121.5546,False,True,False,,,,False,False,['座標遠離記錄縣市邊界（超出11公里以上）'],cleaned,
90,滿州社區活動中心,屏東縣滿州鄉,22.0233,120.8371,False,True,False,,,,False,False,['座標遠離記錄縣市邊界（超出11公里以上）'],cleaned,
91,屏東縣滿州鄉圖書館,屏東縣滿州鄉,22.0243,120.8377,False,True,False,,,,False,False,['座標遠離記錄縣市邊界（超出11公里以上）'],cleaned,
92,滿州國民中學,屏東縣滿州鄉,22.024499,120.839695,False,True,False,,,,False,False,['座標遠離記錄縣市邊界（超出11公里以上）'],cleaned,
93,蘭恩活動中心,臺東縣蘭嶼鄉,22.026,121.539,False,True,False,,,,False,False,['座標遠離記錄縣市邊界（超出11公里以上）'],cleaned,
94,蘭嶼國民小學,臺東縣蘭嶼鄉,22.0302,121.5266,False,True,False,,,,False,False,['座標遠離記錄縣市邊界（超出11公里以上）'],cleaned,
95,響林活動中心,屏東縣滿州鄉,22.0377,120.8335,False,True,False,,,,False,False,['座標遠離記錄縣市邊界（超出11公里以上）'],cleaned,
96,椰油國民小學,臺東縣蘭嶼鄉,22.0453,121.5176,False,True,False,,,,False,False,['座標遠離記錄縣市邊界（超出11公里以上）'],cleaned,
97,蘭嶼完全高級中學,臺東縣蘭嶼鄉,22.0494,121.5126,False,True,False,,,,False,False,['座標遠離記錄縣市邊界（超出11公里以上）'],cleaned,
98,屏東縣立車城國小保力分校,屏東縣車城鄉,22.0561,120.7275,False,True,False,,,,False,False,['座標遠離記錄縣市邊界（超出11公里以上）'],cleaned,
99,屏東縣立車城國小射寮分校,屏東縣車城鄉,22.0567,120.7118,False,True,False,,,,False,False,['座標遠離記錄縣市邊界（超出11公里以上）'],cleaned,
100,屏東縣立車城國中,屏東縣車城鄉,22.0729,120.7165,False,True,False,,,,False,False,['座標遠離記錄縣市邊界（超出11公里以上）'],cleaned,
101,高士國小牡林分校,屏東縣牡丹鄉,22.0731,120.8139,False,True,False,,,,False,False,['座標遠離記錄縣市邊界（超出11公里以上）'],cleaned,
102,長樂村長壽俱樂部,屏東縣滿州鄉,22.0742,120.8258,False,True,False,,,,False,False,['座標遠離記錄縣市邊界（超出11公里以上）'],cleaned,
103,屏東縣立車城國小,屏東縣車城鄉,22.0749,120.7146,False,True,False,,,,False,False,['座標遠離記錄縣市邊界（超出11公里以上）'],cleaned,
104,長樂國小,屏東縣滿州鄉,22.0755,120.8286,False,True,False,,,,False,False,['座標遠離記錄縣市邊界（超出11公里以上）'],cleaned,
105,車城福安宮香客大樓,屏東縣車城鄉,22.0766,120.7119,False,True,False,,,,False,False,['座標遠離記錄縣市邊界（超出11公里以上）'],cleaned,
106,朗島國小,臺東縣蘭嶼鄉,22.0792,121.5286,False,True,False,,,,False,False,['座標遠離記錄縣市邊界（超出11公里以上）'],cleaned,
107,屏東縣立車城國小溫泉分校,屏東縣車城鄉,22.096,120.7487,False,True,False,,,,False,False,['座標遠離記錄縣市邊界（超出11公里以上）'],cleaned,
108,九棚永久屋大愛基地活動中心,屏東縣滿州鄉,22.111079,120.87378,False,True,False,,,,False,False,['座標遠離記錄縣市邊界（超出11公里以上）'],cleaned,
109,高士國小,屏東縣牡丹鄉,22.1248,120.847,False,True,False,,,,False,False,['座標遠離記錄縣市邊界（超出11公里以上）'],cleaned,
110,石門村活動中心,屏東縣牡丹鄉,22.1254,120.774,False,True,False,,,,False,False,['座標遠離記錄縣市邊界（超出11公里以上）'],cleaned,
111,港仔活動中心,屏東縣滿州鄉,22.1334,120.8815,False,True,False,,,,False,False,['座標遠離記錄縣市邊界（超出11公里以上）'],cleaned,
112,竹坑活動中心,屏東縣獅子鄉,22.1454,120.7012,False,True,False,,,,False,False,['座標遠離記錄縣市邊界（超出11公里以上）'],cleaned,
113,牡丹國小,屏東縣牡丹鄉,22.1766,120.8377,False,True,False,,,,False,False,['座標遠離記錄縣市邊界（超出11公里以上）'],cleaned,
114,楓港國民小學,屏東縣枋山鄉,22.1902,120.6922,False,True,False,,,,False,False,['座標遠離記錄縣市邊界（超出11公里以上）'],cleaned,
115,旭海村活動中心,屏東縣牡丹鄉,22.1917,120.8786,False,True,False,,,,False,False,['座標遠離記錄縣市邊界（超出11公里以上）'],cleaned,
116,楓港老人文康中心,屏東縣枋山鄉,22.193,120.6895,False,True,False,,,,False,False,['座標遠離記錄縣市邊界（超出11公里以上）'],cleaned,
117,楓林國小,屏東縣獅子鄉,22.2022,120.7038,False,True,False,,,,False,False,['座標遠離記錄縣市邊界（超出11公里以上）'],cleaned,
118,丹路國小,屏東縣獅子鄉,22.2034,120.7515,False,True,False,,,,False,False,['座標遠離記錄縣市邊界（超出11公里以上）'],cleaned,
119,獅子鄉立綜合體育館,屏東縣獅子鄉,22.2051,120.7014,False,True,False,,,,False,False,['座標遠離記錄縣市邊界（超出11公里以上）'],cleaned,
120,東源村活動中心,屏東縣牡丹鄉,22.2052,120.851,False,True,False,,,,False,False,['座標遠離記錄縣市邊界（超出11公里以上）'],cleaned,
121,內文活動中心,屏東縣獅子鄉,22.2183,120.8507,False,True,False,,,,False,False,['座標遠離記錄縣市邊界（超出11公里以上）'],cleaned,
122,獅子活動中心,屏東縣獅子鄉,22.2323,120.6805,False,True,False,,,,False,False,['座標遠離記錄縣市邊界（超出11公里以上）'],cleaned,
123,草埔活動中心,屏東縣獅子鄉,22.2341,120.8014,False,True,False,,,,False,False,['座標遠離記錄縣市邊界（超出11公里以上）'],cleaned,
124,枋山鄉公所,屏東縣枋山鄉,22.26396799,120.6524235,False,True,False,,,,False,False,['座標遠離記錄縣市邊界（超出11公里以上）'],cleaned,
125,枋寮高中正成分校,屏東縣枋山鄉,22.2643,120.6606,False,True,False,,,,False,False,['座標遠離記錄縣市邊界（超出11公里以上）'],cleaned,
126,南田基督教會,臺東縣達仁鄉,22.276682,120.890256,False,True,False,,,,False,False,['座標遠離記錄縣市邊界（超出11公里以上）'],cleaned,
127,森永活動中心,臺東縣達仁鄉,22.280641,120.864826,False,True,False,,,,False,False,['座標遠離記錄縣市邊界（超出11公里以上）'],cleaned,
128,南田活動中心,臺東縣達仁鄉,22.286514,120.888972,False,True,False,,,,False,False,['座標遠離記錄縣市邊界（超出11公里以上）'],cleaned,
129,安朔基督教會,臺東縣達仁鄉,22.292996,120.866016,False,True,False,,,,False,False,['座標遠離記錄縣市邊界（超出11公里以上）'],cleaned,
130,安朔集會所,臺東縣達仁鄉,22.293497,120.867753,False,True,False,,,,False,False,['座標遠離記錄縣市邊界（超出11公里以上）'],cleaned,
131,安朔國小,臺東縣達仁鄉,22.294292,120.868276,False,True,False,,,,False,False,['座標遠離記錄縣市邊界（超出11公里以上）'],cleaned,
132,達仁鄉公所禮堂,臺東縣達仁鄉,22.297005,120.883062,False,True,False,,,,False,False,['座標遠離記錄縣市邊界（超出11公里以上）'],cleaned,
133,大南國民小學,臺東縣卑南鄉,22.301654,121.016385,False,True,False,,,,False,False,['座標遠離記錄縣市邊界（超出11公里以上）'],cleaned,
134,內獅國小,屏東縣獅子鄉,22.3052,120.6427,False,True,False,,,,False,False,['座標遠離記錄縣市邊界（超出11公里以上）'],cleaned,
135,南興村社區活動中心,臺東縣大武鄉,22.3104,120.8867,False,True,False,,,,False,False,['座標遠離記錄縣市邊界（超出11公里以上）'],cleaned,
136,南福社區活動中心,屏東縣琉球鄉,22.3284,120.3634,False,True,False,,,,False,False,['座標遠離記錄縣市邊界（超出11公里以上）'],cleaned,
137,加祿國民小學,屏東縣枋山鄉,22.3302,120.6211,False,True,False,,,,False,False,['座標遠離記錄縣市邊界（超出11公里以上）'],cleaned,
138,大福社區活動中心,屏東縣琉球鄉,22.3338,120.3708,False,True,False,,,,False,False,['座標遠離記錄縣市邊界（超出11公里以上）'],cleaned,
139,琉球國中,屏東縣琉球鄉,22.336,120.3685,False,True,False,,,,False,False,['座標遠離記錄縣市邊界（超出11公里以上）'],cleaned,
140,琉球國小,屏東縣琉球鄉,22.3371,120.3683,False,True,False,,,,False,False,['座標遠離記錄縣市邊界（超出11公里以上）'],cleaned,
141,尚武村社區活動中心,臺東縣大武鄉,22.342,120.8818,False,True,False,,,,False,False,['座標遠離記錄縣市邊界（超出11公里以上）'],cleaned,
142,大武鄉立托兒所,臺東縣大武鄉,22.3425,120.8806,False,True,False,,,,False,False,['座標遠離記錄縣市邊界（超出11公里以上）'],cleaned,
143,全德國小,屏東縣琉球鄉,22.3462,120.3692,False,True,False,,,,False,False,['座標遠離記錄縣市邊界（超出11公里以上）'],cleaned,
144,琉球鄉公所,屏東縣琉球鄉,22.3501,120.3837,False,True,False,,,,False,False,['座標遠離記錄縣市邊界（超出11公里以上）'],cleaned,
145,老人文康活動中心,屏東縣枋寮鄉,22.3562,120.5997,False,True,False,,,,False,False,['座標遠離記錄縣市邊界（超出11公里以上）'],cleaned,
146,大武老人會館,臺東縣大武鄉,22.3564,120.9038,False,True,False,,,,False,False,['座標遠離記錄縣市邊界（超出11公里以上）'],cleaned,
147,大武鄉多功能綜合活動中心暨避難收容所,臺東縣大武鄉,22.3581,120.9064,False,True,False,,,,False,False,['座標遠離記錄縣市邊界（超出11公里以上）'],cleaned,
148,古華社區活動中心,屏東縣春日鄉,22.3596,120.6281,False,True,False,,,,False,False,['座標遠離記錄縣市邊界（超出11公里以上）'],cleaned,
149,大武村社區活動中心,臺東縣大武鄉,22.3596,120.8975,False,True,False,,,,False,False,['座標遠離記錄縣市邊界（超出11公里以上）'],cleaned,
150,古華國民小學,屏東縣春日鄉,22.361,120.626,False,True,False,,,,False,False,['座標遠離記錄縣市邊界（超出11公里以上）'],cleaned,
151,僑德國小,屏東縣枋寮鄉,22.3631,120.6,False,True,False,,,,False,False,['座標遠離記錄縣市邊界（超出11公里以上）'],cleaned,
152,枋寮國小,屏東縣枋寮鄉,22.3678,120.5908,False,True,False,,,,False,False,['座標遠離記錄縣市邊界（超出11公里以上）'],cleaned,
153,士文聚會所,屏東縣春日鄉,22.3685,120.6639,False,True,False,,,,False,False,['座標遠離記錄縣市邊界（超出11公里以上）'],cleaned,
154,古華國民小學-士文分校,屏東縣春日鄉,22.3689,120.6635,False,True,False,,,,False,False,['座標遠離記錄縣市邊界（超出11公里以上）'],cleaned,
155,春日社區活動中心,屏東縣春日鄉,22.3703,120.6243,False,True,False,,,,False,False,['座標遠離記錄縣市邊界（超出11公里以上）'],cleaned,
156,春日國民小學,屏東縣春日鄉,22.3703,120.627,False,True,False,,,,False,False,['座標遠離記錄縣市邊界（超出11公里以上）'],cleaned,
157,枋寮高中,屏東縣枋寮鄉,22.3711,120.5908,False,True,False,,,,False,False,['座標遠離記錄縣市邊界（超出11公里以上）'],cleaned,
158,臺東縣立安朔國小新化分校,臺東縣達仁鄉,22.381551,120.856773,False,True,False,,,,False,False,['座標遠離記錄縣市邊界（超出11公里以上）'],cleaned,
159,建興國小,屏東縣枋寮鄉,22.387,120.6019,False,True,False,,,,False,False,['座標遠離記錄縣市邊界（超出11公里以上）'],cleaned,
160,屏東市復興公園,屏東縣屏東市,22.3931,120.2857,False,True,False,,,,False,False,['座標遠離記錄縣市邊界（超出11公里以上）'],cleaned,
161,國立屏東高級工業職業學校,屏東縣屏東市,22.3948,120.2912,False,True,False,,,,False,False,['座標遠離記錄縣市邊界（超出11公里以上）'],cleaned,
162,東海國小,屏東縣枋寮鄉,22.4013,120.5773,False,True,False,,,,False,False,['座標遠離記錄縣市邊界（超出11公里以上）'],cleaned,
163,屏東市千禧公園,屏東縣屏東市,22.4044,120.2952,False,True,False,,,,False,False,['座標遠離記錄縣市邊界（超出11公里以上）'],cleaned,
164,東海國小太源分校,屏東縣枋寮鄉,22.4082,120.593,False,True,False,,,,False,False,['座標遠離記錄縣市邊界（超出11公里以上）'],cleaned,
165,國立佳冬高農,屏東縣佳冬鄉,22.409,120.5584,False,True,False,,,,False,False,['座標遠離記錄縣市邊界（超出11公里以上）'],cleaned,
166,屏東市廣興公園,屏東縣屏東市,22.413,120.2915,False,True,False,,,,False,False,['座標遠離記錄縣市邊界（超出11公里以上）'],cleaned,
167,加津林活動中心,臺東縣大武鄉,22.4162,120.9223,False,True,False,,,,False,False,['座標遠離記錄縣市邊界（超出11公里以上）'],cleaned,
168,佳冬鄉立幼兒園,屏東縣佳冬鄉,22.423,120.5669,False,True,False,,,,False,False,['座標遠離記錄縣市邊界（超出11公里以上）'],cleaned,
169,力里國民小學,屏東縣春日鄉,22.4277,120.629,False,True,False,,,,False,False,['座標遠離記錄縣市邊界（超出11公里以上）'],cleaned,
170,春日鄉立老人文康中心,屏東縣春日鄉,22.428,120.6279,False,True,False,,,,False,False,['座標遠離記錄縣市邊界（超出11公里以上）'],cleaned,
171,佳冬國中,屏東縣佳冬鄉,22.4285,120.5668,False,True,False,,,,False,False,['座標遠離記錄縣市邊界（超出11公里以上）'],cleaned,
172,屏東縣林邊鄉崎峰活動中心,屏東縣林邊鄉,22.4298,120.4902,False,True,False,,,,False,False,['座標遠離記錄縣市邊界（超出11公里以上）'],cleaned,
173,來義鄉文物館,屏東縣來義鄉,22.435,120.6379,False,True,False,,,,False,False,['座標遠離記錄縣市邊界（超出11公里以上）'],cleaned,
174,南和國小,屏東縣來義鄉,22.4364,120.6426,False,True,False,,,,False,False,['座標遠離記錄縣市邊界（超出11公里以上）'],cleaned,
175,屏東縣林邊鄉仁和國民小學,屏東縣林邊鄉,22.4374,120.5114,False,True,False,,,,False,False,['座標遠離記錄縣市邊界（超出11公里以上）'],cleaned,
176,土?天主堂,臺東縣達仁鄉,22.453848,120.886914,False,True,False,,,,False,False,['座標遠離記錄縣市邊界（超出11公里以上）'],cleaned,
177,臺東縣立土?國小,臺東縣達仁鄉,22.453853,120.887664,False,True,False,,,,False,False,['座標遠離記錄縣市邊界（超出11公里以上）'],cleaned,
178,達仁鄉立土?托兒所,臺東縣達仁鄉,22.454897,120.885982,False,True,False,,,,False,False,['座標遠離記錄縣市邊界（超出11公里以上）'],cleaned,
179,大潭國小,屏東縣東港鎮,22.456799,120.495771,False,True,False,,,,False,False,['座標遠離記錄縣市邊界（超出11公里以上）'],cleaned,
180,愛國蒲分校,臺東縣大武鄉,22.4575,120.9227,False,True,False,,,,False,False,['座標遠離記錄縣市邊界（超出11公里以上）'],cleaned,
181,以栗國小,屏東縣東港鎮,22.4624,120.4629,False,True,False,,,,False,False,['座標遠離記錄縣市邊界（超出11公里以上）'],cleaned,
182,東隆宮香客大樓,屏東縣東港鎮,22.4631,120.4488,False,True,False,,,,False,False,['座標遠離記錄縣市邊界（超出11公里以上）'],cleaned,
183,太麻里鄉多良村辦公處,臺東縣太麻里鄉,22.4631,120.9414,False,True,False,,,,False,False,['座標遠離記錄縣市邊界（超出11公里以上）'],cleaned,
184,東隆國小,屏東縣東港鎮,22.463386,120.449937,False,True,False,,,,False,False,['座標遠離記錄縣市邊界（超出11公里以上）'],cleaned,
185,望嘉警察派出所,屏東縣來義鄉,22.4636,120.6218,False,True,False,,,,False,False,['座標遠離記錄縣市邊界（超出11公里以上）'],cleaned,
186,屏東縣林邊鄉竹林國民小學,屏東縣林邊鄉,22.4642,120.5331,False,True,False,,,,False,False,['座標遠離記錄縣市邊界（超出11公里以上）'],cleaned,
187,東港高中,屏東縣東港鎮,22.4652,120.4555,False,True,False,,,,False,False,['座標遠離記錄縣市邊界（超出11公里以上）'],cleaned,
188,東光國小,屏東縣東港鎮,22.4694,120.4596,False,True,False,,,,False,False,['座標遠離記錄縣市邊界（超出11公里以上）'],cleaned,
189,東港國小,屏東縣東港鎮,22.4707,120.4547,False,True,False,,,,False,False,['座標遠離記錄縣市邊界（超出11公里以上）'],cleaned,
190,新埤鄉立幼兒園,屏東縣新埤鄉,22.4754,120.611,False,True,False,,,,False,False,['座標遠離記錄縣市邊界（超出11公里以上）'],cleaned,
191,臺東縣台?國民小學,臺東縣達仁鄉,22.47755,120.9077,False,True,False,,,,False,False,['座標遠離記錄縣市邊界（超出11公里以上）'],cleaned,
192,台?活動中心,臺東縣達仁鄉,22.47805,120.9081,False,True,False,,,,False,False,['座標遠離記錄縣市邊界（超出11公里以上）'],cleaned,
193,東興國小,屏東縣東港鎮,22.4784,120.4657,False,True,False,,,,False,False,['座標遠離記錄縣市邊界（超出11公里以上）'],cleaned,
194,北市大附小,臺北市中正區,22.4797,120.913,False,True,False,,,,False,False,['座標遠離記錄縣市邊界（超出11公里以上）'],cleaned,
195,台?基督教會,臺東縣達仁鄉,22.479837,120.913513,False,True,False,,,,False,False,['座標遠離記錄縣市邊界（超出11公里以上）'],cleaned,
196,啦里吧活動中心,臺東縣達仁鄉,22.48099,120.9136,False,True,False,,,,False,False,['座標遠離記錄縣市邊界（超出11公里以上）'],cleaned,
197,新埤國小,屏東縣新埤鄉,22.4844,120.5653,False,True,False,,,,False,False,['座標遠離記錄縣市邊界（超出11公里以上）'],cleaned,
198,高雄市立中芸國民中學,高雄市林園區,22.485875,120.395311,False,True,False,,,,False,False,['座標遠離記錄縣市邊界（超出11公里以上）'],cleaned,
199,中芸國小,高雄市林園區,22.4871,120.3967,False,True,False,,,,False,False,['座標遠離記錄縣市邊界（超出11公里以上）'],cleaned,
200,烏龍國小,屏東縣新園鄉,22.4877,120.4581,False,True,False,,,,False,False,['座標遠離記錄縣市邊界（超出11公里以上）'],cleaned,
201,鹽洲國小,屏東縣新園鄉,22.4883,120.4408,False,True,False,,,,False,False,['座標遠離記錄縣市邊界（超出11公里以上）'],cleaned,
202,溪北社區活動中心,屏東縣南州鄉,22.4945,120.5111,False,True,False,,,,False,False,['座標遠離記錄縣市邊界（超出11公里以上）'],cleaned,
203,溪北國小,屏東縣南州鄉,22.4957,120.5111,False,True,False,,,,False,False,['座標遠離記錄縣市邊界（超出11公里以上）'],cleaned,
204,文樂活動中心,屏東縣來義鄉,22.4999,120.6243,False,True,False,,,,False,False,['座標遠離記錄縣市邊界（超出11公里以上）'],cleaned,
205,高雄市林園區港埔國民小學,高雄市林園區,22.504297,120.378585,False,True,False,,,,False,False,['座標遠離記錄縣市邊界（超出11公里以上）'],cleaned,
206,高雄市林園區王公國民小學,高雄市林園區,22.504698,120.388254,False,True,False,,,,False,False,['座標遠離記錄縣市邊界（超出11公里以上）'],cleaned,
207,高雄市林園區林園國民小學,高雄市林園區,22.506778,120.394303,False,True,False,,,,False,False,['座標遠離記錄縣市邊界（超出11公里以上）'],cleaned,
208,林園區長青文康活動中心,高雄市林園區,22.5087,120.3945,False,True,False,,,,False,False,['座標遠離記錄縣市邊界（超出11公里以上）'],cleaned,
209,港西國小,屏東縣新園鄉,22.5087,120.4556,False,True,False,,,,False,False,['座標遠離記錄縣市邊界（超出11公里以上）'],cleaned,
210,來義鄉新來義部落多功能活動中心,屏東縣來義鄉,22.5087,120.5825,False,True,False,,,,False,False,['座標遠離記錄縣市邊界（超出11公里以上）'],cleaned,
211,潮南國小,屏東縣潮州鎮,22.512958,120.534672,False,True,False,,,,False,False,['座標遠離記錄縣市邊界（超出11公里以上）'],cleaned,
212,南榮國中,屏東縣崁頂鄉,22.5134,120.5184,False,True,False,,,,False,False,['座標遠離記錄縣市邊界（超出11公里以上）'],cleaned,
213,崁頂國小,屏東縣崁頂鄉,22.5141,120.5118,False,True,False,,,,False,False,['座標遠離記錄縣市邊界（超出11公里以上）'],cleaned,
214,高雄市小港區鳳鳴國民小學,高雄市小港區,22.515082,120.357564,False,True,False,,,,False,False,['座標遠離記錄縣市邊界（超出11公里以上）'],cleaned,
215,崁頂老人文康中心,屏東縣崁頂鄉,22.5152,120.5069,False,True,False,,,,False,False,['座標遠離記錄縣市邊界（超出11公里以上）'],cleaned,
216,高雄市立林園高級中學,高雄市林園區,22.516726,120.395661,False,True,False,,,,False,False,['座標遠離記錄縣市邊界（超出11公里以上）'],cleaned,
217,丹林活動中心,屏東縣來義鄉,22.5174,120.6348,False,True,False,,,,False,False,['座標遠離記錄縣市邊界（超出11公里以上）'],cleaned,
218,高雄市小港區鳳林國民中學,高雄市小港區,22.52185,120.348385,False,True,False,,,,False,False,['座標遠離記錄縣市邊界（超出11公里以上）'],cleaned,
219,潮東國小,屏東縣潮州鎮,22.52309297,120.5609105,False,True,False,,,,False,False,['座標遠離記錄縣市邊界（超出11公里以上）'],cleaned,
220,新園國小,屏東縣新園鄉,22.5241,120.4519,False,True,False,,,,False,False,['座標遠離記錄縣市邊界（超出11公里以上）'],cleaned,
221,歷坵活動中心 Liqiu Activity Center,臺東縣金峰鄉,22.526384,120.926439,False,True,False,,,,False,False,['座標遠離記錄縣市邊界（超出11公里以上）'],cleaned,
222,古樓國小,屏東縣來義鄉,22.5275,120.6258,False,True,False,,,,False,False,['座標遠離記錄縣市邊界（超出11公里以上）'],cleaned,
223,高雄市林園區金潭國民小學,高雄市林園區,22.528055,120.396078,False,True,False,,,,False,False,['座標遠離記錄縣市邊界（超出11公里以上）'],cleaned,
224,金崙溫泉長老教會,臺東縣太麻里鄉,22.530918,120.937667,False,True,False,,,,False,False,['座標遠離記錄縣市邊界（超出11公里以上）'],cleaned,
225,賓茂國小 Binmao Elementary School,臺東縣金峰鄉,22.532403,120.95583,False,True,False,,,,False,False,['座標遠離記錄縣市邊界（超出11公里以上）'],cleaned,
226,賓茂活動中心 Binmao Activity Center,臺東縣金峰鄉,22.532592,120.961712,False,True,False,,,,False,False,['座標遠離記錄縣市邊界（超出11公里以上）'],cleaned,
227,金崙活動中心,臺東縣太麻里鄉,22.533379,120.964363,False,True,False,,,,False,False,['座標遠離記錄縣市邊界（超出11公里以上）'],cleaned,
228,光春國中,屏東縣潮州鎮,22.534662,120.539763,False,True,False,,,,False,False,['座標遠離記錄縣市邊界（超出11公里以上）'],cleaned,
229,力社國小,屏東縣崁頂鄉,22.5388,120.5092,False,True,False,,,,False,False,['座標遠離記錄縣市邊界（超出11公里以上）'],cleaned,
230,義仁里社區活動中心,高雄市大寮區,22.539227,120.403252,False,True,False,,,,False,False,['座標遠離記錄縣市邊界（超出11公里以上）'],cleaned,
231,光春國小,屏東縣潮州鎮,22.540379,120.536872,False,True,False,,,,False,False,['座標遠離記錄縣市邊界（超出11公里以上）'],cleaned,
232,高雄市大寮區昭明國小,高雄市大寮區,22.54239,120.408514,False,True,False,,,,False,False,['座標遠離記錄縣市邊界（超出11公里以上）'],cleaned,
233,新園鄉公所,屏東縣新園鄉,22.5438,120.4615,False,True,False,,,,False,False,['座標遠離記錄縣市邊界（超出11公里以上）'],cleaned,
234,仙吉國小,屏東縣新園鄉,22.5443,120.4611,False,True,False,,,,False,False,['座標遠離記錄縣市邊界（超出11公里以上）'],cleaned,
235,四林國小,屏東縣潮州鎮,22.544592,120.569267,False,True,False,,,,False,False,['座標遠離記錄縣市邊界（超出11公里以上）'],cleaned,
236,新園國中,屏東縣新園鄉,22.5452,120.461,False,True,False,,,,False,False,['座標遠離記錄縣市邊界（超出11公里以上）'],cleaned,
237,光華國小,屏東縣潮州鎮,22.547268,120.543657,False,True,False,,,,False,False,['座標遠離記錄縣市邊界（超出11公里以上）'],cleaned,
238,鎮立幼兒園,屏東縣潮州鎮,22.547719,120.550815,False,True,False,,,,False,False,['座標遠離記錄縣市邊界（超出11公里以上）'],cleaned,
239,潮州國小,屏東縣潮州鎮,22.548406,120.541139,False,True,False,,,,False,False,['座標遠離記錄縣市邊界（超出11公里以上）'],cleaned,
240,佳佐國小中興分校,屏東縣萬巒鄉,22.5491,120.6123,False,True,False,,,,False,False,['座標遠離記錄縣市邊界（超出11公里以上）'],cleaned,
241,瓦?國小,屏東縣新園鄉,22.5523,120.4747,False,True,False,,,,False,False,['座標遠離記錄縣市邊界（超出11公里以上）'],cleaned,
242,平和活動中心,屏東縣泰武鄉,22.5527,120.6293,False,True,False,,,,False,False,['座標遠離記錄縣市邊界（超出11公里以上）'],cleaned,
243,潮州國中,屏東縣潮州鎮,22.554008,120.542947,False,True,False,,,,False,False,['座標遠離記錄縣市邊界（超出11公里以上）'],cleaned,
244,會結里社區活動中心,高雄市大寮區,22.554827,120.424982,False,True,False,,,,False,False,['座標遠離記錄縣市邊界（超出11公里以上）'],cleaned,
246,潮和國小,屏東縣潮州鎮,22.556803,120.538038,False,True,False,,,,False,False,['座標遠離記錄縣市邊界（超出11公里以上）'],cleaned,
247,潮昇國小,屏東縣潮州鎮,22.557031,120.547724,False,True,False,,,,False,False,['座標遠離記錄縣市邊界（超出11公里以上）'],cleaned,
248,新厝里社區活動中心,高雄市大寮區,22.560361,120.40918,False,True,False,,,,False,False,['座標遠離記錄縣市邊界（超出11公里以上）'],cleaned,
249,高雄市小港區小港國民小學,高雄市小港區,22.56103,120.336089,False,True,False,,,,False,False,['座標遠離記錄縣市邊界（超出11公里以上）'],cleaned,
250,志成佛寺,屏東縣萬巒鄉,22.5614,120.5629,False,True,False,,,,False,False,['座標遠離記錄縣市邊界（超出11公里以上）'],cleaned,
251,高雄市小港區鳳陽國民小學,高雄市小港區,22.561551,120.370393,False,True,False,,,,False,False,['座標遠離記錄縣市邊界（超出11公里以上）'],cleaned,
252,潮寮老人活動中心,高雄市大寮區,22.562091,120.430298,False,True,False,,,,False,False,['座標遠離記錄縣市邊界（超出11公里以上）'],cleaned,
253,新庄國小,屏東縣萬丹鄉,22.5622,120.4803,False,True,False,,,,False,False,['座標遠離記錄縣市邊界（超出11公里以上）'],cleaned,
254,高雄市立潮寮國民中學,高雄市大寮區,22.563415,120.425175,False,True,False,,,,False,False,['座標遠離記錄縣市邊界（超出11公里以上）'],cleaned,
255,高雄市小港區二苓國民小學,高雄市小港區,22.5638,120.3533,False,True,False,,,,False,False,['座標遠離記錄縣市邊界（超出11公里以上）'],cleaned,
256,高雄市立小港高級中學,高雄市小港區,22.565249,120.357413,False,True,False,,,,False,False,['座標遠離記錄縣市邊界（超出11公里以上）'],cleaned,
257,高雄市大寮區潮寮國小,高雄市大寮區,22.565716,120.425144,False,True,False,,,,False,False,['座標遠離記錄縣市邊界（超出11公里以上）'],cleaned,
258,國立高雄餐旅大學附屬餐旅高級中等學校,高雄市小港區,22.566216,120.371763,False,True,False,,,,False,False,['座標遠離記錄縣市邊界（超出11公里以上）'],cleaned,
259,高雄市小港區漢民國民小學,高雄市小港區,22.566473,120.35926,False,True,False,,,,False,False,['座標遠離記錄縣市邊界（超出11公里以上）'],cleaned,
260,高雄市立中山國民中學,高雄市小港區,22.56665,120.356421,False,True,False,,,,False,False,['座標遠離記錄縣市邊界（超出11公里以上）'],cleaned,
261,高雄市立小港國民中學,高雄市小港區,22.566732,120.338056,False,True,False,,,,False,False,['座標遠離記錄縣市邊界（超出11公里以上）'],cleaned,
262,高雄市小港區華山國民小學,高雄市小港區,22.5677,120.3657,False,True,False,,,,False,False,['座標遠離記錄縣市邊界（超出11公里以上）'],cleaned,
263,高雄市小港區港和國民小學,高雄市小港區,22.5681,120.3379,False,True,False,,,,False,False,['座標遠離記錄縣市邊界（超出11公里以上）'],cleaned,
264,佳興活動中心,屏東縣泰武鄉,22.5703,120.6631,False,True,False,,,,False,False,['座標遠離記錄縣市邊界（超出11公里以上）'],cleaned,
265,佳佐國小,屏東縣萬巒鄉,22.5712,120.5956,False,True,False,,,,False,False,['座標遠離記錄縣市邊界（超出11公里以上）'],cleaned,
266,萬巒鄉公所展覽廳,屏東縣萬巒鄉,22.5725,120.5678,False,True,False,,,,False,False,['座標遠離記錄縣市邊界（超出11公里以上）'],cleaned,
267,高雄市前鎮區佛公國民小學,高雄市前鎮區,22.572651,120.320909,False,True,False,,,,False,False,['座標遠離記錄縣市邊界（超出11公里以上）'],cleaned,
268,萬巒國小,屏東縣萬巒鄉,22.5727,120.5723,False,True,False,,,,False,False,['座標遠離記錄縣市邊界（超出11公里以上）'],cleaned,
269,大明國小,屏東縣竹田鄉,22.5756,120.5251,False,True,False,,,,False,False,['座標遠離記錄縣市邊界（超出11公里以上）'],cleaned,
270,過溪里社區活動中心,高雄市大寮區,22.576183,120.418885,False,True,False,,,,False,False,['座標遠離記錄縣市邊界（超出11公里以上）'],cleaned,
271,武潭活動中心,屏東縣泰武鄉,22.578,120.6361,False,True,False,,,,False,False,['座標遠離記錄縣市邊界（超出11公里以上）'],cleaned,
272,西方道堂,屏東縣萬巒鄉,22.5802,120.6297,False,True,False,,,,False,False,['座標遠離記錄縣市邊界（超出11公里以上）'],cleaned,
273,高雄市前鎮區明正國民小學,高雄市前鎮區,22.580243,120.326581,False,True,False,,,,False,False,['座標遠離記錄縣市邊界（超出11公里以上）'],cleaned,
274,高雄市立明義國民中學,高雄市小港區,22.582027,120.368282,False,True,False,,,,False,False,['座標遠離記錄縣市邊界（超出11公里以上）'],cleaned,
275,清山寺,高雄市大寮區,22.582377,120.385461,False,True,False,,,,False,False,['座標遠離記錄縣市邊界（超出11公里以上）'],cleaned,
276,萬丹國小,屏東縣萬丹鄉,22.5826,120.4887,False,True,False,,,,False,False,['座標遠離記錄縣市邊界（超出11公里以上）'],cleaned,
277,竹田國小,屏東縣竹田鄉,22.5828,120.544,False,True,False,,,,False,False,['座標遠離記錄縣市邊界（超出11公里以上）'],cleaned,
278,高雄市小港區桂林國民小學,高雄市小港區,22.583128,120.350425,False,True,False,,,,False,False,['座標遠離記錄縣市邊界（超出11公里以上）'],cleaned,
279,高雄市立前鎮國民中學,高雄市前鎮區,22.583367,120.321031,False,True,False,,,,False,False,['座標遠離記錄縣市邊界（超出11公里以上）'],cleaned,
280,高雄市小港區明義國民小學,高雄市小港區,22.5834,120.3678,False,True,False,,,,False,False,['座標遠離記錄縣市邊界（超出11公里以上）'],cleaned,
281,竹田鄉公所,屏東縣竹田鄉,22.5847,120.544,False,True,False,,,,False,False,['座標遠離記錄縣市邊界（超出11公里以上）'],cleaned,
282,富翔天廈,高雄市大寮區,22.584752,120.380306,False,True,False,,,,False,False,['座標遠離記錄縣市邊界（超出11公里以上）'],cleaned,
283,高雄市前鎮區前鎮國民小學,高雄市前鎮區,22.585437,120.308702,False,True,False,,,,False,False,['座標遠離記錄縣市邊界（超出11公里以上）'],cleaned,
284,高雄市立興仁國民中學,高雄市前鎮區,22.5863,120.3139,False,True,False,,,,False,False,['座標遠離記錄縣市邊界（超出11公里以上）'],cleaned,
285,高雄市立前鎮高級中學,高雄市前鎮區,22.586862,120.32001,False,True,False,,,,False,False,['座標遠離記錄縣市邊界（超出11公里以上）'],cleaned,
286,香蘭國小,臺東縣太麻里鄉,22.587759,120.993452,False,True,False,,,,False,False,['座標遠離記錄縣市邊界（超出11公里以上）'],cleaned,
287,高雄市旗津區大汕國民小學,高雄市旗津區,22.5879,120.2877,False,True,False,,,,False,False,['座標遠離記錄縣市邊界（超出11公里以上）'],cleaned,
288,高雄市立旗津國民中學,高雄市旗津區,22.5885,120.286,False,True,False,,,,False,False,['座標遠離記錄縣市邊界（超出11公里以上）'],cleaned,
289,萬巒鄉立幼兒園泗溝分班,屏東縣萬巒鄉,22.5885,120.58,False,True,False,,,,False,False,['座標遠離記錄縣市邊界（超出11公里以上）'],cleaned,
290,圖書館,屏東縣萬丹鄉,22.589,120.4849,False,True,False,,,,False,False,['座標遠離記錄縣市邊界（超出11公里以上）'],cleaned,
291,萬丹鄉行政中心,屏東縣萬丹鄉,22.5894,120.485,False,True,False,,,,False,False,['座標遠離記錄縣市邊界（超出11公里以上）'],cleaned,
292,高雄市旗津區公所5樓大禮堂,高雄市旗津區,22.589974,120.284774,False,True,False,,,,False,False,['座標遠離記錄縣市邊界（超出11公里以上）'],cleaned,
293,佛聖宮,高雄市大寮區,22.590008,120.381144,False,True,False,,,,False,False,['座標遠離記錄縣市邊界（超出11公里以上）'],cleaned,
294,高雄市鳳山區過埤國民小學,高雄市鳳山區,22.590382,120.362405,False,True,False,,,,False,False,['座標遠離記錄縣市邊界（超出11公里以上）'],cleaned,
295,高雄市立福誠高級中學,高雄市鳳山區,22.590487,120.323885,False,True,False,,,,False,False,['座標遠離記錄縣市邊界（超出11公里以上）'],cleaned,
296,高雄市前鎮區鎮昌國民小學,高雄市前鎮區,22.590548,120.317983,False,True,False,,,,False,False,['座標遠離記錄縣市邊界（超出11公里以上）'],cleaned,
297,五溝國小,屏東縣萬巒鄉,22.5908,120.594,False,True,False,,,,False,False,['座標遠離記錄縣市邊界（超出11公里以上）'],cleaned,
298,高雄市大寮區大寮國民小學,高雄市大寮區,22.590861,120.416445,False,True,False,,,,False,False,['座標遠離記錄縣市邊界（超出11公里以上）'],cleaned,
299,佳平活動中心,屏東縣泰武鄉,22.591406,120.628948,False,True,False,,,,False,False,['座標遠離記錄縣市邊界（超出11公里以上）'],cleaned,
300,大寮里社區活動中心,高雄市大寮區,22.591471,120.416643,False,True,False,,,,False,False,['座標遠離記錄縣市邊界（超出11公里以上）'],cleaned,
301,泰武國中,屏東縣泰武鄉,22.5915,120.6333,False,True,False,,,,False,False,['座標遠離記錄縣市邊界（超出11公里以上）'],cleaned,
302,澳洲特區,高雄市大寮區,22.591949,120.396834,False,True,False,,,,False,False,['座標遠離記錄縣市邊界（超出11公里以上）'],cleaned,
303,荷蘭町,高雄市大寮區,22.591993,120.399701,False,True,False,,,,False,False,['座標遠離記錄縣市邊界（超出11公里以上）'],cleaned,
304,興華國小,屏東縣萬丹鄉,22.5929,120.4615,False,True,False,,,,False,False,['座標遠離記錄縣市邊界（超出11公里以上）'],cleaned,
305,高雄市政府社會局無障礙之家,高雄市前鎮區,22.5941,120.3153,False,True,False,,,,False,False,['座標遠離記錄縣市邊界（超出11公里以上）'],cleaned,
306,高雄市鳳山區南成國民小學,高雄市鳳山區,22.594316,120.335487,False,True,False,,,,False,False,['座標遠離記錄縣市邊界（超出11公里以上）'],cleaned,
307,龍成宮,高雄市鳳山區,22.5945,120.3283,False,True,False,,,,False,False,['座標遠離記錄縣市邊界（超出11公里以上）'],cleaned,
308,米蘭特區,高雄市大寮區,22.594653,120.388157,False,True,False,,,,False,False,['座標遠離記錄縣市邊界（超出11公里以上）'],cleaned,
309,四維國小,屏東縣萬丹鄉,22.595,120.49,False,True,False,,,,False,False,['座標遠離記錄縣市邊界（超出11公里以上）'],cleaned,
310,僑智國小,屏東縣內埔鄉,22.595,120.5566,False,True,False,,,,False,False,['座標遠離記錄縣市邊界（超出11公里以上）'],cleaned,
311,萬金天主教堂,屏東縣萬巒鄉,22.5951,120.6112,False,True,False,,,,False,False,['座標遠離記錄縣市邊界（超出11公里以上）'],cleaned,
312,嘉蘭國小 Jialan Elementary School,臺東縣金峰鄉,22.595308,120.961523,False,True,False,,,,False,False,['座標遠離記錄縣市邊界（超出11公里以上）'],cleaned,
313,高雄市鳳山區鳳翔國民小學,高雄市鳳山區,22.595332,120.340798,False,True,False,,,,False,False,['座標遠離記錄縣市邊界（超出11公里以上）'],cleaned,
314,高雄市立鳳翔國民中學,高雄市鳳山區,22.59641,120.348197,False,True,False,,,,False,False,['座標遠離記錄縣市邊界（超出11公里以上）'],cleaned,
315,萬丹國中,屏東縣萬丹鄉,22.5966,120.4881,False,True,False,,,,False,False,['座標遠離記錄縣市邊界（超出11公里以上）'],cleaned,
316,嘉蘭村活動中心 Jialan Activity Center,臺東縣金峰鄉,22.596696,120.959985,False,True,False,,,,False,False,['座標遠離記錄縣市邊界（超出11公里以上）'],cleaned,
317,高雄市鳳山區福誠國民小學,高雄市鳳山區,22.596813,120.325055,False,True,False,,,,False,False,['座標遠離記錄縣市邊界（超出11公里以上）'],cleaned,
318,高雄市立五甲國民中學,高雄市鳳山區,22.598112,120.328691,False,True,False,,,,False,False,['座標遠離記錄縣市邊界（超出11公里以上）'],cleaned,
319,高雄市鳳山區中崙國民小學,高雄市鳳山區,22.599431,120.350798,False,True,False,,,,False,False,['座標遠離記錄縣市邊界（超出11公里以上）'],cleaned,
320,大發公有市場3樓,高雄市大寮區,22.600592,120.397972,False,True,False,,,,False,False,['座標遠離記錄縣市邊界（超出11公里以上）'],cleaned,
321,高雄市前鎮區瑞祥國民小學,高雄市前鎮區,22.600692,120.326798,False,True,False,,,,False,False,['座標遠離記錄縣市邊界（超出11公里以上）'],cleaned,
322,高雄市旗津區中洲國民小學,高雄市旗津區,22.6008,120.2764,False,True,False,,,,False,False,['座標遠離記錄縣市邊界（超出11公里以上）'],cleaned,
323,高雄市立瑞祥高級中學,高雄市前鎮區,22.602208,120.324758,False,True,False,,,,False,False,['座標遠離記錄縣市邊界（超出11公里以上）'],cleaned,
324,高雄市立大寮幼兒園,高雄市大寮區,22.602808,120.422136,False,True,False,,,,False,False,['座標遠離記錄縣市邊界（超出11公里以上）'],cleaned,
325,高雄市立大寮國民中學,高雄市大寮區,22.602926,120.39266,False,True,False,,,,False,False,['座標遠離記錄縣市邊界（超出11公里以上）'],cleaned,
326,高雄市立中崙國民中學,高雄市鳳山區,22.603304,120.353555,False,True,False,,,,False,False,['座標遠離記錄縣市邊界（超出11公里以上）'],cleaned,
327,三隆里社區活動中心,高雄市大寮區,22.60349,120.406342,False,True,False,,,,False,False,['座標遠離記錄縣市邊界（超出11公里以上）'],cleaned,
328,高雄市鳳山區正義國民小學,高雄市鳳山區,22.603997,120.340127,False,True,False,,,,False,False,['座標遠離記錄縣市邊界（超出11公里以上）'],cleaned,
329,正興村活動中心Zhengxing Activity Center,臺東縣金峰鄉,22.604086,120.996484,False,True,False,,,,False,False,['座標遠離記錄縣市邊界（超出11公里以上）'],cleaned,
330,泰武活動中心,屏東縣泰武鄉,22.6046,120.6117,False,True,False,,,,False,False,['座標遠離記錄縣市邊界（超出11公里以上）'],cleaned,
331,高雄市立獅甲國民中學,高雄市前鎮區,22.6051,120.3083,False,True,False,,,,False,False,['座標遠離記錄縣市邊界（超出11公里以上）'],cleaned,
332,竹田鄉立幼兒園,屏東縣竹田鄉,22.60513,120.5476216,False,True,False,,,,False,False,['座標遠離記錄縣市邊界（超出11公里以上）'],cleaned,
333,高雄市大寮區永芳國民小學,高雄市大寮區,22.605277,120.395195,False,True,False,,,,False,False,['座標遠離記錄縣市邊界（超出11公里以上）'],cleaned,
334,高雄市前鎮區瑞豐國民小學,高雄市前鎮區,22.6061,120.337,False,True,False,,,,False,False,['座標遠離記錄縣市邊界（超出11公里以上）'],cleaned,
335,金湯營區,高雄市鳳山區,22.6077,120.3623,False,True,False,,,,False,False,['座標遠離記錄縣市邊界（超出11公里以上）'],cleaned,
336,中正營區,高雄市鳳山區,22.6077,120.3623,False,True,False,,,,False,False,['座標遠離記錄縣市邊界（超出11公里以上）'],cleaned,
337,高雄市大寮區山頂國民小學,高雄市大寮區,22.607807,120.388806,False,True,False,,,,False,False,['座標遠離記錄縣市邊界（超出11公里以上）'],cleaned,
338,高雄市前鎮區復興國民小學,高雄市前鎮區,22.608203,120.311425,False,True,False,,,,False,False,['座標遠離記錄縣市邊界（超出11公里以上）'],cleaned,
339,高雄市前鎮區樂群國民小學,高雄市前鎮區,22.608234,120.322489,False,True,False,,,,False,False,['座標遠離記錄縣市邊界（超出11公里以上）'],cleaned,
340,山頂里社區活動中心,高雄市大寮區,22.608247,120.388518,False,True,False,,,,False,False,['座標遠離記錄縣市邊界（超出11公里以上）'],cleaned,
341,高雄市前鎮區民權國民小學,高雄市前鎮區,22.608482,120.314444,False,True,False,,,,False,False,['座標遠離記錄縣市邊界（超出11公里以上）'],cleaned,
342,高雄市旗津區旗津國民小學,高雄市旗津區,22.609,120.2715,False,True,False,,,,False,False,['座標遠離記錄縣市邊界（超出11公里以上）'],cleaned,
343,高雄市竹西里活動中心,高雄市前鎮區,22.60930404,120.3198654,False,True,False,,,,False,False,['座標遠離記錄縣市邊界（超出11公里以上）'],cleaned,
344,內埔國小,屏東縣內埔鄉,22.61,120.5659,False,True,False,,,,False,False,['座標遠離記錄縣市邊界（超出11公里以上）'],cleaned,
345,高雄市立中正高級工業職業學校,高雄市前鎮區,22.610595,120.317629,False,True,False,,,,False,False,['座標遠離記錄縣市邊界（超出11公里以上）'],cleaned,
346,高雄市立光華國民中學,高雄市前鎮區,22.61083,120.322944,False,True,False,,,,False,False,['座標遠離記錄縣市邊界（超出11公里以上）'],cleaned,
347,內埔鄉文康中心,屏東縣內埔鄉,22.611,120.5695,False,True,False,,,,False,False,['座標遠離記錄縣市邊界（超出11公里以上）'],cleaned,
348,高雄市立瑞豐國民中學,高雄市前鎮區,22.611085,120.331091,False,True,False,,,,False,False,['座標遠離記錄縣市邊界（超出11公里以上）'],cleaned,
349,內埔國中,屏東縣內埔鄉,22.6113,120.5705,False,True,False,,,,False,False,['座標遠離記錄縣市邊界（超出11公里以上）'],cleaned,
350,大王國小,臺東縣太麻里鄉,22.613304,121.003685,False,True,False,,,,False,False,['座標遠離記錄縣市邊界（超出11公里以上）'],cleaned,
351,高雄市鳳山區新甲國民小學,高雄市鳳山區,22.613771,120.339923,False,True,False,,,,False,False,['座標遠離記錄縣市邊界（超出11公里以上）'],cleaned,
352,高雄市苓雅區成功國民小學,高雄市苓雅區,22.613929,120.297064,False,True,False,,,,False,False,['座標遠離記錄縣市邊界（超出11公里以上）'],cleaned,
353,高雄市前鎮區愛群國民小學,高雄市前鎮區,22.61396,120.312716,False,True,False,,,,False,False,['座標遠離記錄縣市邊界（超出11公里以上）'],cleaned,
354,武侯宮,高雄市大寮區,22.613987,120.411173,False,True,False,,,,False,False,['座標遠離記錄縣市邊界（超出11公里以上）'],cleaned,
355,光武里社區活動中心,高雄市大寮區,22.614458,120.384658,False,True,False,,,,False,False,['座標遠離記錄縣市邊界（超出11公里以上）'],cleaned,
356,高雄市苓洲國民小學,高雄市苓雅區,22.6145,120.3005,False,True,False,,,,False,False,['座標遠離記錄縣市邊界（超出11公里以上）'],cleaned,
357,順安府,臺東縣太麻里鄉,22.614936,120.993368,False,True,False,,,,False,False,['座標遠離記錄縣市邊界（超出11公里以上）'],cleaned,
358,太麻里鄉老人會館,臺東縣太麻里鄉,22.614936,120.993368,False,True,False,,,,False,False,['座標遠離記錄縣市邊界（超出11公里以上）'],cleaned,
359,社皮國小,屏東縣萬丹鄉,22.615,120.4681,False,True,False,,,,False,False,['座標遠離記錄縣市邊界（超出11公里以上）'],cleaned,
360,高雄市立英明國民中學,高雄市苓雅區,22.615251,120.324395,False,True,False,,,,False,False,['座標遠離記錄縣市邊界（超出11公里以上）'],cleaned,
361,東寧國小,屏東縣內埔鄉,22.6155,120.5629,False,True,False,,,,False,False,['座標遠離記錄縣市邊界（超出11公里以上）'],cleaned,
362,老人文康活動中心,屏東縣萬丹鄉,22.6157,120.4691,False,True,False,,,,False,False,['座標遠離記錄縣市邊界（超出11公里以上）'],cleaned,
363,老人文康活動中心,屏東縣萬丹鄉,22.6157,120.4691,False,True,False,,,,False,False,['座標遠離記錄縣市邊界（超出11公里以上）'],cleaned,
364,廣安國小,屏東縣萬丹鄉,22.6157,120.4905,False,True,False,,,,False,False,['座標遠離記錄縣市邊界（超出11公里以上）'],cleaned,
365,竹田國中,屏東縣竹田鄉,22.615722,120.524088,False,True,False,,,,False,False,['座標遠離記錄縣市邊界（超出11公里以上）'],cleaned,
366,黃厝北極上帝殿,高雄市大寮區,22.616179,120.410497,False,True,False,,,,False,False,['座標遠離記錄縣市邊界（超出11公里以上）'],cleaned,
367,富田國小,屏東縣內埔鄉,22.6163,120.5401,False,True,False,,,,False,False,['座標遠離記錄縣市邊界（超出11公里以上）'],cleaned,
368,高雄市大寮區忠義國民小學,高雄市大寮區,22.616353,120.384143,False,True,False,,,,False,False,['座標遠離記錄縣市邊界（超出11公里以上）'],cleaned,
369,高雄市立鳳甲國民中學,高雄市鳳山區,22.616576,120.342588,False,True,False,,,,False,False,['座標遠離記錄縣市邊界（超出11公里以上）'],cleaned,
370,高雄市鳳山區誠正國民小學,高雄市鳳山區,22.616848,120.363867,False,True,False,,,,False,False,['座標遠離記錄縣市邊界（超出11公里以上）'],cleaned,
371,高雄市鳳山區鳳西國民小學,高雄市鳳山區,22.61715,120.358728,False,True,False,,,,False,False,['座標遠離記錄縣市邊界（超出11公里以上）'],cleaned,
372,高雄市鳳山區忠孝國民小學,高雄市鳳山區,22.617854,120.349428,False,True,False,,,,False,False,['座標遠離記錄縣市邊界（超出11公里以上）'],cleaned,
373,高雄市立苓雅國民中學,高雄市苓雅區,22.618047,120.30541,False,True,False,,,,False,False,['座標遠離記錄縣市邊界（超出11公里以上）'],cleaned,
374,忠義里里辦公處2樓,高雄市大寮區,22.618515,120.382478,False,True,False,,,,False,False,['座標遠離記錄縣市邊界（超出11公里以上）'],cleaned,
375,中興里社區活動中心,高雄市大寮區,22.618811,120.387461,False,True,False,,,,False,False,['座標遠離記錄縣市邊界（超出11公里以上）'],cleaned,
376,高雄市苓雅區福康國民小學,高雄市苓雅區,22.618957,120.32935,False,True,False,,,,False,False,['座標遠離記錄縣市邊界（超出11公里以上）'],cleaned,
377,黃埔營區,高雄市鳳山區,22.6192,120.3656,False,True,False,,,,False,False,['座標遠離記錄縣市邊界（超出11公里以上）'],cleaned,
378,高雄市立忠孝國民中學,高雄市鳳山區,22.619923,120.346448,False,True,False,,,,False,False,['座標遠離記錄縣市邊界（超出11公里以上）'],cleaned,
379,新濱營區,高雄市鼓山區,22.6202,120.2745,False,True,False,,,,False,False,['座標遠離記錄縣市邊界（超出11公里以上）'],cleaned,
380,高雄市政府社會局安琪兒家園,高雄市苓雅區,22.6205,120.312,False,True,False,,,,False,False,['座標遠離記錄縣市邊界（超出11公里以上）'],cleaned,
381,高雄市政府社會局陽光家園,高雄市苓雅區,22.6205,120.312,False,True,False,,,,False,False,['座標遠離記錄縣市邊界（超出11公里以上）'],cleaned,
382,高雄市苓雅區五權國民小學,高雄市苓雅區,22.62062,120.324166,False,True,False,,,,False,False,['座標遠離記錄縣市邊界（超出11公里以上）'],cleaned,
383,育英國小,屏東縣內埔鄉,22.6207,120.5815,False,True,False,,,,False,False,['座標遠離記錄縣市邊界（超出11公里以上）'],cleaned,
384,高雄市立高雄高級女子中學,高雄市前金區,22.6209,120.2927,False,True,False,,,,False,False,['座標遠離記錄縣市邊界（超出11公里以上）'],cleaned,
385,高雄市鹽埕區光榮國民小學,高雄市鹽埕區,22.621,120.288,False,True,False,,,,False,False,['座標遠離記錄縣市邊界（超出11公里以上）'],cleaned,
386,謝府元帥廟,高雄市大寮區,22.621389,120.393778,False,True,False,,,,False,False,['座標遠離記錄縣市邊界（超出11公里以上）'],cleaned,
387,高雄市鹽埕區忠孝國民小學,高雄市鹽埕區,22.6216,120.2852,False,True,False,,,,False,False,['座標遠離記錄縣市邊界（超出11公里以上）'],cleaned,
388,沙鹿幼兒園埔子分班,臺中市沙鹿區,22.6219,120.3381,False,True,False,,,,False,False,['座標遠離記錄縣市邊界（超出11公里以上）'],cleaned,
389,高雄市苓雅區四維國民小學,高雄市苓雅區,22.623092,120.312653,False,True,False,,,,False,False,['座標遠離記錄縣市邊界（超出11公里以上）'],cleaned,
390,翁園里社區活動中心,高雄市大寮區,22.623246,120.408663,False,True,False,,,,False,False,['座標遠離記錄縣市邊界（超出11公里以上）'],cleaned,
391,高雄市大寮區翁園國民小學,高雄市大寮區,22.623246,120.408663,False,True,False,,,,False,False,['座標遠離記錄縣市邊界（超出11公里以上）'],cleaned,
392,高雄市鼓山區鼓山國民小學,高雄市鼓山區,22.6236,120.2713,False,True,False,,,,False,False,['座標遠離記錄縣市邊界（超出11公里以上）'],cleaned,
393,高雄市立鹽埕國民中學,高雄市鹽埕區,22.6236,120.2879,False,True,False,,,,False,False,['座標遠離記錄縣市邊界（超出11公里以上）'],cleaned,
394,高雄市鹽埕區鹽埕國民小學,高雄市鹽埕區,22.6237,120.2829,False,True,False,,,,False,False,['座標遠離記錄縣市邊界（超出11公里以上）'],cleaned,
395,高雄市鳳山區大東國民小學,高雄市鳳山區,22.623852,120.362625,False,True,False,,,,False,False,['座標遠離記錄縣市邊界（超出11公里以上）'],cleaned,
396,高雄市苓雅區福東國民小學,高雄市苓雅區,22.6241,120.3269,False,True,False,,,,False,False,['座標遠離記錄縣市邊界（超出11公里以上）'],cleaned,
397,高雄市立新興高級中學,高雄市新興區,22.6244,120.304,False,True,False,,,,False,False,['座標遠離記錄縣市邊界（超出11公里以上）'],cleaned,
398,鹽埕區公所11樓大禮堂,高雄市鹽埕區,22.6248,120.2868,False,True,False,,,,False,False,['座標遠離記錄縣市邊界（超出11公里以上）'],cleaned,
399,高雄市鳳山區鳳山國民小學,高雄市鳳山區,22.624823,120.356507,False,True,False,,,,False,False,['座標遠離記錄縣市邊界（超出11公里以上）'],cleaned,
400,鳳山區公所大禮堂,高雄市鳳山區,22.6252,120.3592,False,True,False,,,,False,False,['座標遠離記錄縣市邊界（超出11公里以上）'],cleaned,
401,高雄市立鳳山國民中學,高雄市鳳山區,22.625285,120.372009,False,True,False,,,,False,False,['座標遠離記錄縣市邊界（超出11公里以上）'],cleaned,
402,高雄市立高雄高級高商職業學校,高雄市新興區,22.6257,120.3095,False,True,False,,,,False,False,['座標遠離記錄縣市邊界（超出11公里以上）'],cleaned,
403,高雄市前金區前金國民小學,高雄市前金區,22.626351,120.293922,False,True,False,,,,False,False,['座標遠離記錄縣市邊界（超出11公里以上）'],cleaned,
404,高雄市立中正高級中學,高雄市苓雅區,22.626491,120.338791,False,True,False,,,,False,False,['座標遠離記錄縣市邊界（超出11公里以上）'],cleaned,
405,高雄市新興區新興國民小學,高雄市新興區,22.627003,120.305317,False,True,False,,,,False,False,['座標遠離記錄縣市邊界（超出11公里以上）'],cleaned,
406,萬安活動中心,屏東縣泰武鄉,22.6274,120.6384,False,True,False,,,,False,False,['座標遠離記錄縣市邊界（超出11公里以上）'],cleaned,
407,前金區公所5樓大禮堂,高雄市前金區,22.6276,120.2943,False,True,False,,,,False,False,['座標遠離記錄縣市邊界（超出11公里以上）'],cleaned,
408,高雄市新興區大同國民小學,高雄市新興區,22.628,120.2985,False,True,False,,,,False,False,['座標遠離記錄縣市邊界（超出11公里以上）'],cleaned,
409,高雄市鳳山區中正國民小學,高雄市鳳山區,22.628249,120.37408,False,True,False,,,,False,False,['座標遠離記錄縣市邊界（超出11公里以上）'],cleaned,
410,溪寮里社區活動中心,高雄市大寮區,22.628398,120.420494,False,True,False,,,,False,False,['座標遠離記錄縣市邊界（超出11公里以上）'],cleaned,
411,基督教鳳山長老教會,高雄市鳳山區,22.6284,120.361,False,True,False,,,,False,False,['座標遠離記錄縣市邊界（超出11公里以上）'],cleaned,
412,高雄市立前金國民中學,高雄市前金區,22.6294,120.2905,False,True,False,,,,False,False,['座標遠離記錄縣市邊界（超出11公里以上）'],cleaned,
413,國立鳳山高級中學,高雄市鳳山區,22.629893,120.345723,False,True,False,,,,False,False,['座標遠離記錄縣市邊界（超出11公里以上）'],cleaned,
414,排灣社區活動中心,屏東縣瑪家鄉,22.63,120.6264,False,True,False,,,,False,False,['座標遠離記錄縣市邊界（超出11公里以上）'],cleaned,
415,高雄市苓雅區中正國民小學,高雄市苓雅區,22.630177,120.333309,False,True,False,,,,False,False,['座標遠離記錄縣市邊界（超出11公里以上）'],cleaned,
416,高雄市鳳山區瑞興國民小學,高雄市鳳山區,22.63018,120.368353,False,True,False,,,,False,False,['座標遠離記錄縣市邊界（超出11公里以上）'],cleaned,
417,鳳山街友服務中心,高雄市鳳山區,22.6303,120.3648,False,True,False,,,,False,False,['座標遠離記錄縣市邊界（超出11公里以上）'],cleaned,
418,高雄市大寮區溪寮國民小學,高雄市大寮區,22.630524,120.420439,False,True,False,,,,False,False,['座標遠離記錄縣市邊界（超出11公里以上）'],cleaned,
419,高雄市鳳山區中山國民小學,高雄市鳳山區,22.630617,120.349906,False,True,False,,,,False,False,['座標遠離記錄縣市邊界（超出11公里以上）'],cleaned,
420,高雄市立青年國民中學,高雄市鳳山區,22.630785,120.349,False,True,False,,,,False,False,['座標遠離記錄縣市邊界（超出11公里以上）'],cleaned,
421,泰安國小,屏東縣內埔鄉,22.6308,120.5943,False,True,False,,,,False,False,['座標遠離記錄縣市邊界（超出11公里以上）'],cleaned,
422,北里活動中心,臺東縣太麻里鄉,22.6313,120.9994,False,True,False,,,,False,False,['座標遠離記錄縣市邊界（超出11公里以上）'],cleaned,
423,高雄市新興區信義國民小學,高雄市新興區,22.6316,120.311,False,True,False,,,,False,False,['座標遠離記錄縣市邊界（超出11公里以上）'],cleaned,
424,高雄市鼓山區壽山國民小學,高雄市鼓山區,22.631757,120.280013,False,True,False,,,,False,False,['座標遠離記錄縣市邊界（超出11公里以上）'],cleaned,
425,高雄市前金區建國國民小學,高雄市前金區,22.6324,120.2979,False,True,False,,,,False,False,['座標遠離記錄縣市邊界（超出11公里以上）'],cleaned,
426,高雄市立壽山國民中學,高雄市鼓山區,22.633012,120.278437,False,True,False,,,,False,False,['座標遠離記錄縣市邊界（超出11公里以上）'],cleaned,
427,高雄市三民區河濱國民小學,高雄市三民區,22.634,120.2878,False,True,False,,,,False,False,['座標遠離記錄縣市邊界（超出11公里以上）'],cleaned,
428,高雄市新興區七賢國民小學,高雄市新興區,22.634,120.307,False,True,False,,,,False,False,['座標遠離記錄縣市邊界（超出11公里以上）'],cleaned,
429,高雄市鳳山區文華國民小學,高雄市鳳山區,22.6344,120.352746,False,True,False,,,,False,False,['座標遠離記錄縣市邊界（超出11公里以上）'],cleaned,
430,高雄市大寮區中庄國民小學,高雄市大寮區,22.634717,120.397497,False,True,False,,,,False,False,['座標遠離記錄縣市邊界（超出11公里以上）'],cleaned,
431,"千歲,千北,立德,鳳南聯合里活動中心",高雄市三民區,22.6354,120.2906,False,True,False,,,,False,False,['座標遠離記錄縣市邊界（超出11公里以上）'],cleaned,
432,三塊厝聯合里活動中心,高雄市三民區,22.6361,120.2958,False,True,False,,,,False,False,['座標遠離記錄縣市邊界（超出11公里以上）'],cleaned,
433,高雄市苓雅區凱旋國民小學,高雄市苓雅區,22.636415,120.319935,False,True,False,,,,False,False,['座標遠離記錄縣市邊界（超出11公里以上）'],cleaned,
434,高雄市立中庄國民中學,高雄市大寮區,22.636416,120.401844,False,True,False,,,,False,False,['座標遠離記錄縣市邊界（超出11公里以上）'],cleaned,
435,高雄市三民區三民國民小學,高雄市三民區,22.6367,120.2911,False,True,False,,,,False,False,['座標遠離記錄縣市邊界（超出11公里以上）'],cleaned,
436,鼓山區行政中心七樓大禮堂,高雄市鼓山區,22.6368,120.281,False,True,False,,,,False,False,['座標遠離記錄縣市邊界（超出11公里以上）'],cleaned,
437,江山里社區活動中心,高雄市大寮區,22.63768,120.411378,False,True,False,,,,False,False,['座標遠離記錄縣市邊界（超出11公里以上）'],cleaned,
438,高雄市大寮區後庄國民小學,高雄市大寮區,22.637822,120.389503,False,True,False,,,,False,False,['座標遠離記錄縣市邊界（超出11公里以上）'],cleaned,
439,屏東市公館國小,屏東縣屏東市,22.6379,120.4822,False,True,False,,,,False,False,['座標遠離記錄縣市邊界（超出11公里以上）'],cleaned,
440,高雄市立高雄高級中學,高雄市三民區,22.6382,120.298,False,True,False,,,,False,False,['座標遠離記錄縣市邊界（超出11公里以上）'],cleaned,
441,高雄市三民區光武國民小學,高雄市三民區,22.6388,120.3343,False,True,False,,,,False,False,['座標遠離記錄縣市邊界（超出11公里以上）'],cleaned,
442,北辰宮,高雄市鳳山區,22.6393,120.3658,False,True,False,,,,False,False,['座標遠離記錄縣市邊界（超出11公里以上）'],cleaned,
443,高雄市鼓山區鼓岩國民小學,高雄市鼓山區,22.6401,120.283,False,True,False,,,,False,False,['座標遠離記錄縣市邊界（超出11公里以上）'],cleaned,
444,高雄市立民族國民中學,高雄市三民區,22.640511,120.33318,False,True,False,,,,False,False,['座標遠離記錄縣市邊界（超出11公里以上）'],cleaned,
445,"德北,十全,十美聯合里活動中心",高雄市三民區,22.6406,120.2951,False,True,False,,,,False,False,['座標遠離記錄縣市邊界（超出11公里以上）'],cleaned,
446,高雄市鳳山區文德國民小學,高雄市鳳山區,22.640693,120.353925,False,True,False,,,,False,False,['座標遠離記錄縣市邊界（超出11公里以上）'],cleaned,
447,寶安里活動中心,高雄市三民區,22.6407,120.3289,False,True,False,,,,False,False,['座標遠離記錄縣市邊界（超出11公里以上）'],cleaned,
448,後庄老人活動中心,高雄市大寮區,22.640743,120.390201,False,True,False,,,,False,False,['座標遠離記錄縣市邊界（超出11公里以上）'],cleaned,
449,麟洛鄉公所,屏東縣麟洛鄉,22.641,120.536,False,True,False,,,,False,False,['座標遠離記錄縣市邊界（超出11公里以上）'],cleaned,
450,國立屏東科技大學孟祥體育館,屏東縣內埔鄉,22.64119569,120.5960839,False,True,False,,,,False,False,['座標遠離記錄縣市邊界（超出11公里以上）'],cleaned,
451,屏東縣立公正國中,屏東縣屏東市,22.6412,120.4842,False,True,False,,,,False,False,['座標遠離記錄縣市邊界（超出11公里以上）'],cleaned,
452,義和代天府,高雄市大寮區,22.641423,120.420934,False,True,False,,,,False,False,['座標遠離記錄縣市邊界（超出11公里以上）'],cleaned,
453,高雄市鳳山區鎮北國民小學,高雄市鳳山區,22.642652,120.368052,False,True,False,,,,False,False,['座標遠離記錄縣市邊界（超出11公里以上）'],cleaned,
454,新興國小 Xingxing Elementary School,臺東縣金峰鄉,22.64298,121.002857,False,True,False,,,,False,False,['座標遠離記錄縣市邊界（超出11公里以上）'],cleaned,
455,"德智,德仁里活動中心",高雄市三民區,22.643,120.3088,False,True,False,,,,False,False,['座標遠離記錄縣市邊界（超出11公里以上）'],cleaned,
456,寶珠溝里活動中心,高雄市三民區,22.6431,120.3339,False,True,False,,,,False,False,['座標遠離記錄縣市邊界（超出11公里以上）'],cleaned,
457,高雄市立陽明國民中學,高雄市三民區,22.643129,120.340424,False,True,False,,,,False,False,['座標遠離記錄縣市邊界（超出11公里以上）'],cleaned,
458,高雄市三民區民族國民小學,高雄市三民區,22.6435,120.3202,False,True,False,,,,False,False,['座標遠離記錄縣市邊界（超出11公里以上）'],cleaned,
459,高雄市避難收容暨備災訓練中心,高雄市鳳山區,22.6436,120.3648,False,True,False,,,,False,False,['座標遠離記錄縣市邊界（超出11公里以上）'],cleaned,
460,中都地區聯合里活動中心,高雄市三民區,22.6442,120.283,False,True,False,,,,False,False,['座標遠離記錄縣市邊界（超出11公里以上）'],cleaned,
461,高雄市立正興國民中學,高雄市三民區,22.644461,120.319684,False,True,False,,,,False,False,['座標遠離記錄縣市邊界（超出11公里以上）'],cleaned,
462,高雄市三民區愛國國民小學,高雄市三民區,22.6445,120.3137,False,True,False,,,,False,False,['座標遠離記錄縣市邊界（超出11公里以上）'],cleaned,
463,高雄市三民區博愛國民小學,高雄市三民區,22.6453,120.3067,False,True,False,,,,False,False,['座標遠離記錄縣市邊界（超出11公里以上）'],cleaned,
464,高雄市三民區陽明國民小學,高雄市三民區,22.6457,120.3356,False,True,False,,,,False,False,['座標遠離記錄縣市邊界（超出11公里以上）'],cleaned,
465,高雄市三民區正興國民小學,高雄市三民區,22.6463,120.3261,False,True,False,,,,False,False,['座標遠離記錄縣市邊界（超出11公里以上）'],cleaned,
466,高雄市立三民國民中學,高雄市三民區,22.64653,120.306679,False,True,False,,,,False,False,['座標遠離記錄縣市邊界（超出11公里以上）'],cleaned,
467,高雄市三民區十全國民小學,高雄市三民區,22.6467,120.2987,False,True,False,,,,False,False,['座標遠離記錄縣市邊界（超出11公里以上）'],cleaned,
468,"安東,安和,達明聯合里活動中心",高雄市三民區,22.6467,120.304,False,True,False,,,,False,False,['座標遠離記錄縣市邊界（超出11公里以上）'],cleaned,
469,高雄市三民區公所,高雄市三民區,22.6476,120.2998,False,True,False,,,,False,False,['座標遠離記錄縣市邊界（超出11公里以上）'],cleaned,
470,麟洛國中,屏東縣麟洛鄉,22.648,120.5227,False,True,False,,,,False,False,['座標遠離記錄縣市邊界（超出11公里以上）'],cleaned,
471,高雄市立文山高級中學,高雄市鳥松區,22.64819,120.352786,False,True,False,,,,False,False,['座標遠離記錄縣市邊界（超出11公里以上）'],cleaned,
472,寶盛里活動中心,高雄市三民區,22.6483,120.3263,False,True,False,,,,False,False,['座標遠離記錄縣市邊界（超出11公里以上）'],cleaned,
473,高雄市三民區東光國民小學,高雄市三民區,22.649,120.3397,False,True,False,,,,False,False,['座標遠離記錄縣市邊界（超出11公里以上）'],cleaned,
474,安宜里活動中心,高雄市三民區,22.6498,120.2967,False,True,False,,,,False,False,['座標遠離記錄縣市邊界（超出11公里以上）'],cleaned,
475,屏東市前進國小,屏東縣屏東市,22.6502,120.4583,False,True,False,,,,False,False,['座標遠離記錄縣市邊界（超出11公里以上）'],cleaned,
476,高雄市立高雄高級工業職業學校,高雄市三民區,22.65063,120.326452,False,True,False,,,,False,False,['座標遠離記錄縣市邊界（超出11公里以上）'],cleaned,
477,麟洛鄉圖書館,屏東縣麟洛鄉,22.6507,120.5272,False,True,False,,,,False,False,['座標遠離記錄縣市邊界（超出11公里以上）'],cleaned,
478,麟洛國小,屏東縣麟洛鄉,22.6507,120.5272,False,True,False,,,,False,False,['座標遠離記錄縣市邊界（超出11公里以上）'],cleaned,
479,老人文康活動中心,高雄市鳥松區,22.6511,120.3953,False,True,False,,,,False,False,['座標遠離記錄縣市邊界（超出11公里以上）'],cleaned,
480,高雄市立鼓山高級中學,高雄市鼓山區,22.651425,120.27469,False,True,False,,,,False,False,['座標遠離記錄縣市邊界（超出11公里以上）'],cleaned,
481,高雄市鼓山區九如國民小學,高雄市鼓山區,22.652148,120.278711,False,True,False,,,,False,False,['座標遠離記錄縣市邊界（超出11公里以上）'],cleaned,
482,佳義基督長老教會教育館,屏東縣瑪家鄉,22.6536,120.6311,False,True,False,,,,False,False,['座標遠離記錄縣市邊界（超出11公里以上）'],cleaned,
483,高雄市鳥松區大華國民小學,高雄市鳥松區,22.653733,120.340501,False,True,False,,,,False,False,['座標遠離記錄縣市邊界（超出11公里以上）'],cleaned,
484,高雄市鼓山區龍華國民小學,高雄市鼓山區,22.655,120.2977,False,True,False,,,,False,False,['座標遠離記錄縣市邊界（超出11公里以上）'],cleaned,
485,本和里活動中心,高雄市三民區,22.6555,120.3261,False,True,False,,,,False,False,['座標遠離記錄縣市邊界（超出11公里以上）'],cleaned,
486,高雄市立鼎金國民中學,高雄市三民區,22.655593,120.320505,False,True,False,,,,False,False,['座標遠離記錄縣市邊界（超出11公里以上）'],cleaned,
487,本館里集會所,高雄市三民區,22.6557,120.3315,False,True,False,,,,False,False,['座標遠離記錄縣市邊界（超出11公里以上）'],cleaned,
488,高雄市大樹區九曲國民小學,高雄市大樹區,22.655886,120.423343,False,True,False,,,,False,False,['座標遠離記錄縣市邊界（超出11公里以上）'],cleaned,
489,高雄市立鼎金國民中學,高雄市三民區,22.6561,120.322,False,True,False,,,,False,False,['座標遠離記錄縣市邊界（超出11公里以上）'],cleaned,
490,台灣基督教長老教會仁美教會短期收,高雄市鳥松區,22.6562,120.3933,False,True,False,,,,False,False,['座標遠離記錄縣市邊界（超出11公里以上）'],cleaned,
491,高雄市三民區莊敬國民小學,高雄市三民區,22.6563,120.3241,False,True,False,,,,False,False,['座標遠離記錄縣市邊界（超出11公里以上）'],cleaned,
492,高雄市鼓山區內惟國民小學,高雄市鼓山區,22.6565,120.2762,False,True,False,,,,False,False,['座標遠離記錄縣市邊界（超出11公里以上）'],cleaned,
493,大樹區綜合體育館,高雄市大樹區,22.6569,120.4245,False,True,False,,,,False,False,['座標遠離記錄縣市邊界（超出11公里以上）'],cleaned,
494,高雄市立大樹國民中學,高雄市大樹區,22.657006,120.422752,False,True,False,,,,False,False,['座標遠離記錄縣市邊界（超出11公里以上）'],cleaned,
495,高雄市立七賢國民中學,高雄市鼓山區,22.657594,120.28928,False,True,False,,,,False,False,['座標遠離記錄縣市邊界（超出11公里以上）'],cleaned,
496,灣愛里活動中心,高雄市三民區,22.6579,120.3213,False,True,False,,,,False,False,['座標遠離記錄縣市邊界（超出11公里以上）'],cleaned,
497,仁美營區,高雄市大樹區,22.6579,120.4137,False,True,False,,,,False,False,['座標遠離記錄縣市邊界（超出11公里以上）'],cleaned,
498,高雄市立龍華國民中學,高雄市左營區,22.658147,120.309546,False,True,False,,,,False,False,['座標遠離記錄縣市邊界（超出11公里以上）'],cleaned,
499,高雄市鳥松區仁美國民小學,高雄市鳥松區,22.658433,120.394141,False,True,False,,,,False,False,['座標遠離記錄縣市邊界（超出11公里以上）'],cleaned,
500,屏東大學屏商校區活動中心,屏東縣屏東市,22.65860765,120.5122037,False,True,False,,,,False,False,['座標遠離記錄縣市邊界（超出11公里以上）'],cleaned,
501,屏東縣立鶴聲國中,屏東縣屏東市,22.6595,120.4725,False,True,False,,,,False,False,['座標遠離記錄縣市邊界（超出11公里以上）'],cleaned,
502,屏東市復興國小,屏東縣屏東市,22.6599,120.4862,False,True,False,,,,False,False,['座標遠離記錄縣市邊界（超出11公里以上）'],cleaned,
503,鳥松區公所三樓,高雄市鳥松區,22.66,120.3643,False,True,False,,,,False,False,['座標遠離記錄縣市邊界（超出11公里以上）'],cleaned,
504,屏東市民生國小,屏東縣屏東市,22.6609,120.509,False,True,False,,,,False,False,['座標遠離記錄縣市邊界（超出11公里以上）'],cleaned,
505,高雄市立明華國民中學,高雄市鼓山區,22.661903,120.301532,False,True,False,,,,False,False,['座標遠離記錄縣市邊界（超出11公里以上）'],cleaned,
506,華源活動中心,臺東縣太麻里鄉,22.66241819,121.027792,False,True,False,,,,False,False,['座標遠離記錄縣市邊界（超出11公里以上）'],cleaned,
507,屏東市公所,屏東縣屏東市,22.6626,120.4915,False,True,False,,,,False,False,['座標遠離記錄縣市邊界（超出11公里以上）'],cleaned,
508,高雄市鳥松區鳥松國民小學（備用）,高雄市鳥松區,22.663078,120.361721,False,True,False,,,,False,False,['座標遠離記錄縣市邊界（超出11公里以上）'],cleaned,
509,高雄市立三民高級中學,高雄市三民區,22.663103,120.32672,False,True,False,,,,False,False,['座標遠離記錄縣市邊界（超出11公里以上）'],cleaned,
510,空軍綠島探空分隊,臺東縣綠島鄉,22.6644,121.4718,False,True,False,,,,False,False,['座標遠離記錄縣市邊界（超出11公里以上）'],cleaned,
511,屏東大學民生校區體育館,屏東縣屏東市,22.66539013,120.5044684,False,True,False,,,,False,False,['座標遠離記錄縣市邊界（超出11公里以上）'],cleaned,
512,屏東市建國國小,屏東縣屏東市,22.6654,120.4866,False,True,False,,,,False,False,['座標遠離記錄縣市邊界（超出11公里以上）'],cleaned,
513,屏東市鶴聲國小,屏東縣屏東市,22.6656,120.4797,False,True,False,,,,False,False,['座標遠離記錄縣市邊界（超出11公里以上）'],cleaned,
514,高雄市立三民高級家事商業職業學校,高雄市左營區,22.666009,120.300608,False,True,False,,,,False,False,['座標遠離記錄縣市邊界（超出11公里以上）'],cleaned,
515,高雄市立鳥松國民中學,高雄市鳥松區,22.666471,120.371072,False,True,False,,,,False,False,['座標遠離記錄縣市邊界（超出11公里以上）'],cleaned,
516,"鼎中,鼎力,鼎膝,鼎金,鼎強,鼎盛聯合里",高雄市三民區,22.6667,120.3217,False,True,False,,,,False,False,['座標遠離記錄縣市邊界（超出11公里以上）'],cleaned,
517,屏東市大同國小,屏東縣屏東市,22.6668,120.476,False,True,False,,,,False,False,['座標遠離記錄縣市邊界（超出11公里以上）'],cleaned,
518,崇文國小,屏東縣內埔鄉,22.6669,120.6002,False,True,False,,,,False,False,['座標遠離記錄縣市邊界（超出11公里以上）'],cleaned,
519,新生國小,屏東縣內埔鄉,22.6673,120.5909,False,True,False,,,,False,False,['座標遠離記錄縣市邊界（超出11公里以上）'],cleaned,
520,高雄市大樹區水寮國民小學,高雄市大樹區,22.667994,120.407847,False,True,False,,,,False,False,['座標遠離記錄縣市邊界（超出11公里以上）'],cleaned,
521,三民街友服務中心,高雄市三民區,22.6684,120.3157,False,True,False,,,,False,False,['座標遠離記錄縣市邊界（超出11公里以上）'],cleaned,
522,南寮社區活動中心,臺東縣綠島鄉,22.6686,121.4687,False,True,False,,,,False,False,['座標遠離記錄縣市邊界（超出11公里以上）'],cleaned,
523,財團法人玄光聖堂短期收容,高雄市鳥松區,22.668784,120.389996,False,True,False,,,,False,False,['座標遠離記錄縣市邊界（超出11公里以上）'],cleaned,
524,高雄市鼓山區中山國民小學,高雄市鼓山區,22.6691,120.2848,False,True,False,,,,False,False,['座標遠離記錄縣市邊界（超出11公里以上）'],cleaned,
525,高雄市左營區新莊國民小學,高雄市左營區,22.669267,120.309875,False,True,False,,,,False,False,['座標遠離記錄縣市邊界（超出11公里以上）'],cleaned,
526,太麻里鄉三和村辦公處,臺東縣太麻里鄉,22.6695,121.0354,False,True,False,,,,False,False,['座標遠離記錄縣市邊界（超出11公里以上）'],cleaned,
527,屏東市民和國小,屏東縣屏東市,22.6706,120.4958,False,True,False,,,,False,False,['座標遠離記錄縣市邊界（超出11公里以上）'],cleaned,
528,高雄新莊天后宮備用,高雄市左營區,22.6716,120.3117,False,True,False,,,,False,False,['座標遠離記錄縣市邊界（超出11公里以上）'],cleaned,
529,屏東市唐榮國小,屏東縣屏東市,22.6716,120.4852,False,True,False,,,,False,False,['座標遠離記錄縣市邊界（超出11公里以上）'],cleaned,
530,仁慈活動中心,高雄市仁武區,22.6717,120.3587,False,True,False,,,,False,False,['座標遠離記錄縣市邊界（超出11公里以上）'],cleaned,
531,和平營區,高雄市三民區,22.6718,120.3314,False,True,False,,,,False,False,['座標遠離記錄縣市邊界（超出11公里以上）'],cleaned,
532,高雄市左營區勝利國民小學,高雄市左營區,22.672458,120.295103,False,True,False,,,,False,False,['座標遠離記錄縣市邊界（超出11公里以上）'],cleaned,
533,高雄市三民區獅湖國民小學,高雄市三民區,22.6726,120.3224,False,True,False,,,,False,False,['座標遠離記錄縣市邊界（超出11公里以上）'],cleaned,
534,屏東縣立中正國中,屏東縣屏東市,22.6726,120.5088,False,True,False,,,,False,False,['座標遠離記錄縣市邊界（超出11公里以上）'],cleaned,
535,綠島國中,臺東縣綠島鄉,22.6731,121.4701,False,True,False,,,,False,False,['座標遠離記錄縣市邊界（超出11公里以上）'],cleaned,
536,綠島國民小學,臺東縣綠島鄉,22.6737,121.4699,False,True,False,,,,False,False,['座標遠離記錄縣市邊界（超出11公里以上）'],cleaned,
537,高雄市立大義國民中學,高雄市左營區,22.6742,120.2928,False,True,False,,,,False,False,['座標遠離記錄縣市邊界（超出11公里以上）'],cleaned,
538,中寮社區活動中心,臺東縣綠島鄉,22.6747,121.4702,False,True,False,,,,False,False,['座標遠離記錄縣市邊界（超出11公里以上）'],cleaned,
539,高雄市立海青高級工商職業學校,高雄市左營區,22.6752,120.2856,False,True,False,,,,False,False,['座標遠離記錄縣市邊界（超出11公里以上）'],cleaned,
540,國立屏東女中,屏東縣屏東市,22.6753,120.4942,False,True,False,,,,False,False,['座標遠離記錄縣市邊界（超出11公里以上）'],cleaned,
541,瑪家社區活動中心,屏東縣瑪家鄉,22.6756,120.6869,False,True,False,,,,False,False,['座標遠離記錄縣市邊界（超出11公里以上）'],cleaned,
542,崇聖殿備用,高雄市大樹區,22.6757,120.4074,False,True,False,,,,False,False,['座標遠離記錄縣市邊界（超出11公里以上）'],cleaned,
543,高雄市立大灣國民中學,高雄市仁武區,22.676023,120.341612,False,True,False,,,,False,False,['座標遠離記錄縣市邊界（超出11公里以上）'],cleaned,
544,公館國民小學,臺東縣綠島鄉,22.6764,121.4848,False,True,False,,,,False,False,['座標遠離記錄縣市邊界（超出11公里以上）'],cleaned,
545,高雄市左營區新民國民小學,高雄市左營區,22.676691,120.313158,False,True,False,,,,False,False,['座標遠離記錄縣市邊界（超出11公里以上）'],cleaned,
546,屏東市仁愛國小,屏東縣屏東市,22.6767,120.4948,False,True,False,,,,False,False,['座標遠離記錄縣市邊界（超出11公里以上）'],cleaned,
548,綠島鄉社會福利活動中心,臺東縣綠島鄉,22.6769,121.4847,False,True,False,,,,False,False,['座標遠離記錄縣市邊界（超出11公里以上）'],cleaned,
549,長興國小,屏東縣長治鄉,22.6772,120.5261,False,True,False,,,,False,False,['座標遠離記錄縣市邊界（超出11公里以上）'],cleaned,
550,菜公豐谷宮備用,高雄市左營區,22.6774,120.3155,False,True,False,,,,False,False,['座標遠離記錄縣市邊界（超出11公里以上）'],cleaned,
551,公館社區活動中心,臺東縣綠島鄉,22.6777,121.4807,False,True,False,,,,False,False,['座標遠離記錄縣市邊界（超出11公里以上）'],cleaned,
552,屏東縣立大同高中,屏東縣屏東市,22.678,120.4777,False,True,False,,,,False,False,['座標遠離記錄縣市邊界（超出11公里以上）'],cleaned,
553,崇文國中,屏東縣內埔鄉,22.6786,120.6021,False,True,False,,,,False,False,['座標遠離記錄縣市邊界（超出11公里以上）'],cleaned,
554,高雄市立左營國民中學,高雄市左營區,22.679456,120.306724,False,True,False,,,,False,False,['座標遠離記錄縣市邊界（超出11公里以上）'],cleaned,
555,高雄市仁武區登發國民小學,高雄市仁武區,22.679647,120.354051,False,True,False,,,,False,False,['座標遠離記錄縣市邊界（超出11公里以上）'],cleaned,
556,高雄市左營區新光國民小學,高雄市左營區,22.67983,120.304805,False,True,False,,,,False,False,['座標遠離記錄縣市邊界（超出11公里以上）'],cleaned,
557,屏東縣立明正國中,屏東縣屏東市,22.6799,120.4976,False,True,False,,,,False,False,['座標遠離記錄縣市邊界（超出11公里以上）'],cleaned,
558,埤子頭鎮福廟,高雄市左營區,22.680335,120.289652,False,True,False,,,,False,False,['座標遠離記錄縣市邊界（超出11公里以上）'],cleaned,
559,屏東市勝利國小,屏東縣屏東市,22.6807,120.4857,False,True,False,,,,False,False,['座標遠離記錄縣市邊界（超出11公里以上）'],cleaned,
560,屏東市瑞光國小,屏東縣屏東市,22.6808,120.5091,False,True,False,,,,False,False,['座標遠離記錄縣市邊界（超出11公里以上）'],cleaned,
561,高雄市立新莊高級中學,高雄市左營區,22.6812,120.3176,False,True,False,,,,False,False,['座標遠離記錄縣市邊界（超出11公里以上）'],cleaned,
562,啟明堂備用,高雄市左營區,22.682,120.2923,False,True,False,,,,False,False,['座標遠離記錄縣市邊界（超出11公里以上）'],cleaned,
563,舊城城隍廟,高雄市左營區,22.682196,120.290474,False,True,False,,,,False,False,['座標遠離記錄縣市邊界（超出11公里以上）'],cleaned,
564,左營元帝廟,高雄市左營區,22.682521,120.288158,False,True,False,,,,False,False,['座標遠離記錄縣市邊界（超出11公里以上）'],cleaned,
565,高雄市仁武區灣內國民小學,高雄市仁武區,22.683088,120.357281,False,True,False,,,,False,False,['座標遠離記錄縣市邊界（超出11公里以上）'],cleaned,
566,高雄市左營區舊城國民小學,高雄市左營區,22.683177,120.293004,False,True,False,,,,False,False,['座標遠離記錄縣市邊界（超出11公里以上）'],cleaned,
567,高雄市左營區福山國民小學,高雄市左營區,22.683573,120.317215,False,True,False,,,,False,False,['座標遠離記錄縣市邊界（超出11公里以上）'],cleaned,
568,屏東市崇蘭國小,屏東縣屏東市,22.6842,120.477,False,True,False,,,,False,False,['座標遠離記錄縣市邊界（超出11公里以上）'],cleaned,
569,護安寺,高雄市左營區,22.6853,120.2951,False,True,False,,,,False,False,['座標遠離記錄縣市邊界（超出11公里以上）'],cleaned,
570,左營揚善堂,高雄市左營區,22.685509,120.288708,False,True,False,,,,False,False,['座標遠離記錄縣市邊界（超出11公里以上）'],cleaned,
571,國立屏東高中,屏東縣屏東市,22.6861,120.4888,False,True,False,,,,False,False,['座標遠離記錄縣市邊界（超出11公里以上）'],cleaned,
572,屏東市和平國小,屏東縣屏東市,22.687,120.5017,False,True,False,,,,False,False,['座標遠離記錄縣市邊界（超出11公里以上）'],cleaned,
573,天府宮,高雄市左營區,22.687113,120.296399,False,True,False,,,,False,False,['座標遠離記錄縣市邊界（超出11公里以上）'],cleaned,
574,黎明國小,屏東縣內埔鄉,22.6874,120.5969,False,True,False,,,,False,False,['座標遠離記錄縣市邊界（超出11公里以上）'],cleaned,
575,太麻里鄉美和國民小學,臺東縣太麻里鄉,22.687685,121.044275,False,True,False,,,,False,False,['座標遠離記錄縣市邊界（超出11公里以上）'],cleaned,
576,高雄市大樹區大樹國民小學,高雄市大樹區,22.687763,120.43459,False,True,False,,,,False,False,['座標遠離記錄縣市邊界（超出11公里以上）'],cleaned,
577,高雄市左營區明德國民小學,高雄市左營區,22.688006,120.289355,False,True,False,,,,False,False,['座標遠離記錄縣市邊界（超出11公里以上）'],cleaned,
578,?後北極殿,高雄市左營區,22.688899,120.291964,False,True,False,,,,False,False,['座標遠離記錄縣市邊界（超出11公里以上）'],cleaned,
579,高雄市仁武區八卦國民小學,高雄市仁武區,22.689043,120.333146,False,True,False,,,,False,False,['座標遠離記錄縣市邊界（超出11公里以上）'],cleaned,
580,左營區公所8樓大禮堂,高雄市左營區,22.689882,120.29511,False,True,False,,,,False,False,['座標遠離記錄縣市邊界（超出11公里以上）'],cleaned,
581,涼山社區活動中心,屏東縣瑪家鄉,22.6901,120.6369,False,True,False,,,,False,False,['座標遠離記錄縣市邊界（超出11公里以上）'],cleaned,
582,高雄市左營區左營國民小學,高雄市左營區,22.690488,120.293299,False,True,False,,,,False,False,['座標遠離記錄縣市邊界（超出11公里以上）'],cleaned,
583,高楠活動中心,高雄市仁武區,22.6917,120.3242,False,True,False,,,,False,False,['座標遠離記錄縣市邊界（超出11公里以上）'],cleaned,
584,屏東縣立至正國中,屏東縣屏東市,22.6917,120.4936,False,True,False,,,,False,False,['座標遠離記錄縣市邊界（超出11公里以上）'],cleaned,
585,知本金聯世紀酒店,臺東縣卑南鄉,22.692402,121.019876,False,True,False,,,,False,False,['座標遠離記錄縣市邊界（超出11公里以上）'],cleaned,
586,大樹區公所二樓會議室,高雄市大樹區,22.6933,120.4331,False,True,False,,,,False,False,['座標遠離記錄縣市邊界（超出11公里以上）'],cleaned,
587,長治國中,屏東縣長治鄉,22.6934,120.5437,False,True,False,,,,False,False,['座標遠離記錄縣市邊界（超出11公里以上）'],cleaned,
588,高雄市立左營高級中學,高雄市左營區,22.693416,120.296158,False,True,False,,,,False,False,['座標遠離記錄縣市邊界（超出11公里以上）'],cleaned,
589,德協國小,屏東縣長治鄉,22.6941,120.5415,False,True,False,,,,False,False,['座標遠離記錄縣市邊界（超出11公里以上）'],cleaned,
590,大社村辦公處含活動中心,屏東縣三地門鄉,22.694157,120.637733,False,True,False,,,,False,False,['座標遠離記錄縣市邊界（超出11公里以上）'],cleaned,
591,高雄東照山關帝廟備用,高雄市大樹區,22.6942,120.3941,False,True,False,,,,False,False,['座標遠離記錄縣市邊界（超出11公里以上）'],cleaned,
592,循理會南三和教會,屏東縣瑪家鄉,22.6949,120.5989,False,True,False,,,,False,False,['座標遠離記錄縣市邊界（超出11公里以上）'],cleaned,
593,復興永清里活動中心,高雄市左營區,22.69567,120.299673,False,True,False,,,,False,False,['座標遠離記錄縣市邊界（超出11公里以上）'],cleaned,
594,祥和山莊活動中心,高雄市左營區,22.69635,120.301803,False,True,False,,,,False,False,['座標遠離記錄縣市邊界（超出11公里以上）'],cleaned,
595,原大樹鄉民代表會,高雄市大樹區,22.6964,120.4321,False,True,False,,,,False,False,['座標遠離記錄縣市邊界（超出11公里以上）'],cleaned,
596,臺東縣農會東遊季溫泉渡假村,臺東縣卑南鄉,22.696483,121.019705,False,True,False,,,,False,False,['座標遠離記錄縣市邊界（超出11公里以上）'],cleaned,
597,溫泉國民小學,臺東縣卑南鄉,22.697667,121.02593,False,True,False,,,,False,False,['座標遠離記錄縣市邊界（超出11公里以上）'],cleaned,
598,溫泉村活動中心,臺東縣卑南鄉,22.697823,121.025091,False,True,False,,,,False,False,['座標遠離記錄縣市邊界（超出11公里以上）'],cleaned,
599,高雄市仁武區.烏林國民小學,高雄市仁武區,22.697888,120.372598,False,True,False,,,,False,False,['座標遠離記錄縣市邊界（超出11公里以上）'],cleaned,
600,元新溫泉飯店,臺東縣卑南鄉,22.698053,121.024826,False,True,False,,,,False,False,['座標遠離記錄縣市邊界（超出11公里以上）'],cleaned,
601,屏東市海豐國小,屏東縣屏東市,22.6989,120.508,False,True,False,,,,False,False,['座標遠離記錄縣市邊界（超出11公里以上）'],cleaned,
602,高雄市仁武區仁武國民小學,高雄市仁武區,22.701263,120.348359,False,True,False,,,,False,False,['座標遠離記錄縣市邊界（超出11公里以上）'],cleaned,
603,仁武區綜合活動中心,高雄市仁武區,22.7013,120.3484,False,True,False,,,,False,False,['座標遠離記錄縣市邊界（超出11公里以上）'],cleaned,
604,隘寮國小,屏東縣內埔鄉,22.7024,120.6357,False,True,False,,,,False,False,['座標遠離記錄縣市邊界（超出11公里以上）'],cleaned,
606,繁華國小,屏東縣長治鄉,22.7026,120.5722,False,True,False,,,,False,False,['座標遠離記錄縣市邊界（超出11公里以上）'],cleaned,
607,瑪家國中,屏東縣瑪家鄉,22.7026,120.6095,False,True,False,,,,False,False,['座標遠離記錄縣市邊界（超出11公里以上）'],cleaned,
608,亞莊酒店,臺東縣卑南鄉,22.703397,121.032022,False,True,False,,,,False,False,['座標遠離記錄縣市邊界（超出11公里以上）'],cleaned,
609,中村基督長老教會,屏東縣瑪家鄉,22.7034,120.6078,False,True,False,,,,False,False,['座標遠離記錄縣市邊界（超出11公里以上）'],cleaned,
610,玉泉社區活動中心,屏東縣瑪家鄉,22.7036,120.6089,False,True,False,,,,False,False,['座標遠離記錄縣市邊界（超出11公里以上）'],cleaned,
611,仁武里活動中心,高雄市仁武區,22.70434779,120.3447169,False,True,False,,,,False,False,['座標遠離記錄縣市邊界（超出11公里以上）'],cleaned,
612,知本社區活動中心,臺東縣臺東市,22.705462,121.055645,False,True,False,,,,False,False,['座標遠離記錄縣市邊界（超出11公里以上）'],cleaned,
613,北葉國小體育館,屏東縣瑪家鄉,22.7074,120.646,False,True,False,,,,False,False,['座標遠離記錄縣市邊界（超出11公里以上）'],cleaned,
614,F Hotel,臺東縣卑南鄉,22.707519,121.042182,False,True,False,,,,False,False,['座標遠離記錄縣市邊界（超出11公里以上）'],cleaned,
615,高雄市楠梓區廣、大、久、盛昌里活動中心,高雄市楠梓區,22.707528,120.285079,False,True,False,,,,False,False,['座標遠離記錄縣市邊界（超出11公里以上）'],cleaned,
616,建業社區活動中心,臺東縣臺東市,22.707748,121.050993,False,True,False,,,,False,False,['座標遠離記錄縣市邊界（超出11公里以上）'],cleaned,
617,中華里活動中心,高雄市仁武區,22.7085,120.3272,False,True,False,,,,False,False,['座標遠離記錄縣市邊界（超出11公里以上）'],cleaned,
618,高雄市楠梓區油廠國民小學,高雄市楠梓區,22.708958,120.302919,False,True,False,,,,False,False,['座標遠離記錄縣市邊界（超出11公里以上）'],cleaned,
619,北葉社區活動中心,屏東縣瑪家鄉,22.7096,120.6479,False,True,False,,,,False,False,['座標遠離記錄縣市邊界（超出11公里以上）'],cleaned,
620,高雄市仁武區竹後國民小學,高雄市仁武區,22.710042,120.334866,False,True,False,,,,False,False,['座標遠離記錄縣市邊界（超出11公里以上）'],cleaned,
621,高雄市左營區莒光國民小學,高雄市左營區,22.711558,120.295275,False,True,False,,,,False,False,['座標遠離記錄縣市邊界（超出11公里以上）'],cleaned,
622,高雄市楠梓區莒光國民小學,高雄市楠梓區,22.711558,120.295275,False,True,False,,,,False,False,['座標遠離記錄縣市邊界（超出11公里以上）'],cleaned,
623,高雄市立右昌國民中學,高雄市楠梓區,22.713585,120.286911,False,True,False,,,,False,False,['座標遠離記錄縣市邊界（超出11公里以上）'],cleaned,
624,高雄市楠梓區右昌國民小學,高雄市楠梓區,22.713629,120.292106,False,True,False,,,,False,False,['座標遠離記錄縣市邊界（超出11公里以上）'],cleaned,
625,三地門鄉立體育館,屏東縣三地門鄉,22.7141,120.6539,False,True,False,,,,False,False,['座標遠離記錄縣市邊界（超出11公里以上）'],cleaned,
626,地磨兒國小,屏東縣三地門鄉,22.714903,120.654518,False,True,False,,,,False,False,['座標遠離記錄縣市邊界（超出11公里以上）'],cleaned,
627,國軍退役官兵輔導委員會高雄榮譽國民之家,高雄市楠梓區,22.7151,120.3018,False,True,False,,,,False,False,['座標遠離記錄縣市邊界（超出11公里以上）'],cleaned,
628,高雄市楠梓區宏昌等六里聯合活動中心,高雄市楠梓區,22.7154,120.2941,False,True,False,,,,False,False,['座標遠離記錄縣市邊界（超出11公里以上）'],cleaned,
629,臺東縣臺東市建和國小,臺東縣臺東市,22.716736,121.049167,False,True,False,,,,False,False,['座標遠離記錄縣市邊界（超出11公里以上）'],cleaned,
630,高雄市立國昌國民中學,高雄市楠梓區,22.7194,120.2861,False,True,False,,,,False,False,['座標遠離記錄縣市邊界（超出11公里以上）'],cleaned,
631,高雄市楠梓區加昌國民小學,高雄市楠梓區,22.720392,120.296547,False,True,False,,,,False,False,['座標遠離記錄縣市邊界（超出11公里以上）'],cleaned,
632,建農里民眾活動中心,臺東縣臺東市,22.720423,121.084143,False,True,False,,,,False,False,['座標遠離記錄縣市邊界（超出11公里以上）'],cleaned,
633,高雄市楠梓區後勁國民小學,高雄市楠梓區,22.721706,120.314216,False,True,False,,,,False,False,['座標遠離記錄縣市邊界（超出11公里以上）'],cleaned,
634,中里社區活動中心,高雄市大社區,22.7226,120.3513,False,True,False,,,,False,False,['座標遠離記錄縣市邊界（超出11公里以上）'],cleaned,
635,高雄市立後勁國民中學,高雄市楠梓區,22.722854,120.316198,False,True,False,,,,False,False,['座標遠離記錄縣市邊界（超出11公里以上）'],cleaned,
636,九如鄉九如國民小學,屏東縣九如鄉,22.7233,120.4918,False,True,False,,,,False,False,['座標遠離記錄縣市邊界（超出11公里以上）'],cleaned,
637,高雄市楠梓區仁昌里活動中心,高雄市楠梓區,22.724246,120.294854,False,True,False,,,,False,False,['座標遠離記錄縣市邊界（超出11公里以上）'],cleaned,
638,高雄市楠梓區楠陽國民小學,高雄市楠梓區,22.724927,120.331144,False,True,False,,,,False,False,['座標遠離記錄縣市邊界（超出11公里以上）'],cleaned,
639,高雄市楠梓區翠屏里活動中心,高雄市楠梓區,22.726779,120.302159,False,True,False,,,,False,False,['座標遠離記錄縣市邊界（超出11公里以上）'],cleaned,
640,高雄市楠梓區惠豐里活動中心,高雄市楠梓區,22.727244,120.318969,False,True,False,,,,False,False,['座標遠離記錄縣市邊界（超出11公里以上）'],cleaned,
641,高雄市楠梓區援中國民小學,高雄市楠梓區,22.728206,120.27799,False,True,False,,,,False,False,['座標遠離記錄縣市邊界（超出11公里以上）'],cleaned,
642,高雄市楠梓區行政中心7樓大禮堂,高雄市楠梓區,22.7283,120.3263,False,True,False,,,,False,False,['座標遠離記錄縣市邊界（超出11公里以上）'],cleaned,
643,高雄市立蚵寮國民中學（備用）,高雄市梓官區,22.728551,120.25873,False,True,False,,,,False,False,['座標遠離記錄縣市邊界（超出11公里以上）'],cleaned,
644,高雄市立大社國民中學,高雄市大社區,22.729029,120.357267,False,True,False,,,,False,False,['座標遠離記錄縣市邊界（超出11公里以上）'],cleaned,
645,大社老人文康中心,高雄市大社區,22.7293,120.3546,False,True,False,,,,False,False,['座標遠離記錄縣市邊界（超出11公里以上）'],cleaned,
646,高雄市立翠屏國民中小學,高雄市楠梓區,22.729477,120.299446,False,True,False,,,,False,False,['座標遠離記錄縣市邊界（超出11公里以上）'],cleaned,
647,高雄市立中山高級中學,高雄市楠梓區,22.7295,120.2922,False,True,False,,,,False,False,['座標遠離記錄縣市邊界（超出11公里以上）'],cleaned,
648,智信蚵社區聯合活動中心（備用）,高雄市梓官區,22.729634,120.254588,False,True,False,,,,False,False,['座標遠離記錄縣市邊界（超出11公里以上）'],cleaned,
649,大社中山堂,高雄市大社區,22.73,120.3466,False,True,False,,,,False,False,['座標遠離記錄縣市邊界（超出11公里以上）'],cleaned,
650,高雄市楠梓區惠民里集會所,高雄市楠梓區,22.732098,120.323083,False,True,False,,,,False,False,['座標遠離記錄縣市邊界（超出11公里以上）'],cleaned,
651,豐里社區活動中心,臺東縣臺東市,22.732187,121.116004,False,True,False,,,,False,False,['座標遠離記錄縣市邊界（超出11公里以上）'],cleaned,
652,高雄市楠梓區楠梓國民小學,高雄市楠梓區,22.7322,120.3284,False,True,False,,,,False,False,['座標遠離記錄縣市邊界（超出11公里以上）'],cleaned,
653,高雄市梓官區蚵寮國民小學（備用）,高雄市梓官區,22.733411,120.248239,False,True,False,,,,False,False,['座標遠離記錄縣市邊界（超出11公里以上）'],cleaned,
654,高雄市立楠梓國民中學,高雄市楠梓區,22.733936,120.327507,False,True,False,,,,False,False,['座標遠離記錄縣市邊界（超出11公里以上）'],cleaned,
655,保安里活動中心,高雄市大社區,22.7341,120.3527,False,True,False,,,,False,False,['座標遠離記錄縣市邊界（超出11公里以上）'],cleaned,
656,九如鄉圖書館,屏東縣九如鄉,22.7344,120.4896,False,True,False,,,,False,False,['座標遠離記錄縣市邊界（超出11公里以上）'],cleaned,
657,赤崁老人活動中心（備用）,高雄市梓官區,22.736052,120.25016,False,True,False,,,,False,False,['座標遠離記錄縣市邊界（超出11公里以上）'],cleaned,
658,國立臺東大學,臺東縣卑南鄉,22.736056,121.070583,False,True,False,,,,False,False,['座標遠離記錄縣市邊界（超出11公里以上）'],cleaned,
659,高雄市橋頭區甲圍國民小學,高雄市橋頭區,22.736237,120.293408,False,True,False,,,,False,False,['座標遠離記錄縣市邊界（超出11公里以上）'],cleaned,
660,新圍國小,屏東縣鹽埔鄉,22.7383,120.5539,False,True,False,,,,False,False,['座標遠離記錄縣市邊界（超出11公里以上）'],cleaned,
661,彭厝國小,屏東縣鹽埔鄉,22.7399,120.5314,False,True,False,,,,False,False,['座標遠離記錄縣市邊界（超出11公里以上）'],cleaned,
662,九如鄉公所禮堂,屏東縣九如鄉,22.7404,120.4904,False,True,False,,,,False,False,['座標遠離記錄縣市邊界（超出11公里以上）'],cleaned,
663,高雄市大樹區興田國民小學,高雄市大樹區,22.740507,120.445966,False,True,False,,,,False,False,['座標遠離記錄縣市邊界（超出11公里以上）'],cleaned,
664,賽嘉國小,屏東縣三地門鄉,22.74307039,120.6394454,False,True,False,,,,False,False,['座標遠離記錄縣市邊界（超出11公里以上）'],cleaned,
665,賽嘉村辦公處含活動中心,屏東縣三地門鄉,22.743817,120.640299,False,True,False,,,,False,False,['座標遠離記錄縣市邊界（超出11公里以上）'],cleaned,
666,高雄市立楠梓高級中學,高雄市楠梓區,22.744044,120.331155,False,True,False,,,,False,False,['座標遠離記錄縣市邊界（超出11公里以上）'],cleaned,
667,霧台長老教會,屏東縣霧臺鄉,22.7445,120.7312,False,True,False,,,,False,False,['座標遠離記錄縣市邊界（超出11公里以上）'],cleaned,
668,霧台社區活動中心,屏東縣霧臺鄉,22.745,120.7321,False,True,False,,,,False,False,['座標遠離記錄縣市邊界（超出11公里以上）'],cleaned,
669,霧臺國小,屏東縣霧臺鄉,22.7452,120.7312,False,True,False,,,,False,False,['座標遠離記錄縣市邊界（超出11公里以上）'],cleaned,
670,霧台國小運動場,屏東縣霧臺鄉,22.747111,120.723288,False,True,False,,,,False,False,['座標遠離記錄縣市邊界（超出11公里以上）'],cleaned,
671,佛光山寺備用,高雄市大樹區,22.7473,120.4463,False,True,False,,,,False,False,['座標遠離記錄縣市邊界（超出11公里以上）'],cleaned,
672,霧台鄉避難收容所,屏東縣霧臺鄉,22.7498,120.7263,False,True,False,,,,False,False,['座標遠離記錄縣市邊界（超出11公里以上）'],cleaned,
673,神山社區活動中心運動場,屏東縣霧臺鄉,22.750455,120.719513,False,True,False,,,,False,False,['座標遠離記錄縣市邊界（超出11公里以上）'],cleaned,
674,高雄市橋頭區仕隆國民小學,高雄市橋頭區,22.750578,120.310636,False,True,False,,,,False,False,['座標遠離記錄縣市邊界（超出11公里以上）'],cleaned,
675,高雄市橋頭區興糖國民小學,高雄市橋頭區,22.750876,120.317,False,True,False,,,,False,False,['座標遠離記錄縣市邊界（超出11公里以上）'],cleaned,
676,高雄市燕巢區鳳雄國民小學（備用）,高雄市燕巢區,22.753304,120.358101,False,True,False,,,,False,False,['座標遠離記錄縣市邊界（超出11公里以上）'],cleaned,
677,鹽埔國中,屏東縣鹽埔鄉,22.7536,120.5741,False,True,False,,,,False,False,['座標遠離記錄縣市邊界（超出11公里以上）'],cleaned,
678,臺東市公所,臺東縣臺東市,22.754695,121.146637,False,True,False,,,,False,False,['座標遠離記錄縣市邊界（超出11公里以上）'],cleaned,
679,鳳雄營區,高雄市燕巢區,22.7555,120.3602,False,True,False,,,,False,False,['座標遠離記錄縣市邊界（超出11公里以上）'],cleaned,
680,梓平社區活動中心（備用）,高雄市梓官區,22.756467,120.269167,False,True,False,,,,False,False,['座標遠離記錄縣市邊界（超出11公里以上）'],cleaned,
681,鄉立幼兒園,屏東縣鹽埔鄉,22.756522,120.575722,False,True,False,,,,False,False,['座標遠離記錄縣市邊界（超出11公里以上）'],cleaned,
682,橋頭區公所,高雄市橋頭區,22.7576,120.3058,False,True,False,,,,False,False,['座標遠離記錄縣市邊界（超出11公里以上）'],cleaned,
683,高雄市立橋頭國民中學,高雄市橋頭區,22.759012,120.30751,False,True,False,,,,False,False,['座標遠離記錄縣市邊界（超出11公里以上）'],cleaned,
684,梓和社區活動中心（備用）,高雄市梓官區,22.759573,120.266109,False,True,False,,,,False,False,['座標遠離記錄縣市邊界（超出11公里以上）'],cleaned,
685,高雄市橋頭區五林國民小學,高雄市橋頭區,22.75995,120.293721,False,True,False,,,,False,False,['座標遠離記錄縣市邊界（超出11公里以上）'],cleaned,
686,梓官國小（備用）,高雄市梓官區,22.760292,120.264756,False,True,False,,,,False,False,['座標遠離記錄縣市邊界（超出11公里以上）'],cleaned,
687,高雄市立彌陀國民中學（備用）,高雄市彌陀區,22.760359,120.262962,False,True,False,,,,False,False,['座標遠離記錄縣市邊界（超出11公里以上）'],cleaned,
688,梓官區公所,高雄市梓官區,22.7607,120.2673,False,True,False,,,,False,False,['座標遠離記錄縣市邊界（超出11公里以上）'],cleaned,
689,中華社區活動中心,臺東縣臺東市,22.761527,121.158116,False,True,False,,,,False,False,['座標遠離記錄縣市邊界（超出11公里以上）'],cleaned,
690,高雄市橋頭區橋頭國民小學,高雄市橋頭區,22.761764,120.305864,False,True,False,,,,False,False,['座標遠離記錄縣市邊界（超出11公里以上）'],cleaned,
691,高雄市立梓官國民中學,高雄市梓官區,22.762428,120.263476,False,True,False,,,,False,False,['座標遠離記錄縣市邊界（超出11公里以上）'],cleaned,
692,新園社區活動中心,臺東縣臺東市,22.763938,121.052313,False,True,False,,,,False,False,['座標遠離記錄縣市邊界（超出11公里以上）'],cleaned,
694,四維寶桑多功能活動中心,臺東縣臺東市,22.764164,121.154697,False,True,False,,,,False,False,['座標遠離記錄縣市邊界（超出11公里以上）'],cleaned,
695,東興村活動中心,臺東縣卑南鄉,22.765011,121.041149,False,True,False,,,,False,False,['座標遠離記錄縣市邊界（超出11公里以上）'],cleaned,
696,臺東縣臺東市新園國小,臺東縣臺東市,22.765066,121.062352,False,True,False,,,,False,False,['座標遠離記錄縣市邊界（超出11公里以上）'],cleaned,
697,塔樓國小,屏東縣里港鄉,22.7655,120.4838,False,True,False,,,,False,False,['座標遠離記錄縣市邊界（超出11公里以上）'],cleaned,
698,口社國小,屏東縣三地門鄉,22.7666,120.6445,False,True,False,,,,False,False,['座標遠離記錄縣市邊界（超出11公里以上）'],cleaned,
699,高雄市燕巢區橫山國民小學（備用）,高雄市燕巢區,22.768542,120.379471,False,True,False,,,,False,False,['座標遠離記錄縣市邊界（超出11公里以上）'],cleaned,
700,口社村辦公處含活動中心,屏東縣三地門鄉,22.76925,120.647735,False,True,False,,,,False,False,['座標遠離記錄縣市邊界（超出11公里以上）'],cleaned,
701,地磨兒國小德文分校,屏東縣三地門鄉,22.770929,120.701867,False,True,False,,,,False,False,['座標遠離記錄縣市邊界（超出11公里以上）'],cleaned,
702,財團法人臺東縣私立仁愛之家,臺東縣卑南鄉,22.771069,121.106473,False,True,False,,,,False,False,['座標遠離記錄縣市邊界（超出11公里以上）'],cleaned,
703,德文村辦公處含活動中心,屏東縣三地門鄉,22.771351,120.701874,False,True,False,,,,False,False,['座標遠離記錄縣市邊界（超出11公里以上）'],cleaned,
704,行政院國軍退除役官兵輔導委員會馬蘭榮譽國民之家,臺東縣臺東市,22.772402,121.132093,False,True,False,,,,False,False,['座標遠離記錄縣市邊界（超出11公里以上）'],cleaned,
705,嶺口營區,高雄市旗山區,22.7737,120.4417,False,True,False,,,,False,False,['座標遠離記錄縣市邊界（超出11公里以上）'],cleaned,
706,玉田國小,屏東縣里港鄉,22.7743,120.4912,False,True,False,,,,False,False,['座標遠離記錄縣市邊界（超出11公里以上）'],cleaned,
707,豐田里民眾活動中心,臺東縣臺東市,22.774331,121.086381,False,True,False,,,,False,False,['座標遠離記錄縣市邊界（超出11公里以上）'],cleaned,
708,利嘉村活動中心,臺東縣卑南鄉,22.77663,121.061011,False,True,False,,,,False,False,['座標遠離記錄縣市邊界（超出11公里以上）'],cleaned,
709,南勝社區活動中心備用,高雄市旗山區,22.7768,120.4488,False,True,False,,,,False,False,['座標遠離記錄縣市邊界（超出11公里以上）'],cleaned,
710,高雄市燕巢區深水國民小學（備用）,高雄市燕巢區,22.777039,120.405278,False,True,False,,,,False,False,['座標遠離記錄縣市邊界（超出11公里以上）'],cleaned,
711,里港鄉立圖書館,屏東縣里港鄉,22.7802,120.494,False,True,False,,,,False,False,['座標遠離記錄縣市邊界（超出11公里以上）'],cleaned,
712,載興國小,屏東縣里港鄉,22.7806,120.5242,False,True,False,,,,False,False,['座標遠離記錄縣市邊界（超出11公里以上）'],cleaned,
713,里港國小,屏東縣里港鄉,22.7807,120.4945,False,True,False,,,,False,False,['座標遠離記錄縣市邊界（超出11公里以上）'],cleaned,
714,高雄市政府社會局仁愛之家,高雄市燕巢區,22.781,120.4189,False,True,False,,,,False,False,['座標遠離記錄縣市邊界（超出11公里以上）'],cleaned,
715,彌陀區公所,高雄市彌陀區,22.7817,120.2506,False,True,False,,,,False,False,['座標遠離記錄縣市邊界（超出11公里以上）'],cleaned,
716,太平村活動中心,臺東縣卑南鄉,22.781975,121.088375,False,True,False,,,,False,False,['座標遠離記錄縣市邊界（超出11公里以上）'],cleaned,
717,卑南里民眾活動中心,臺東縣臺東市,22.782039,121.122367,False,True,False,,,,False,False,['座標遠離記錄縣市邊界（超出11公里以上）'],cleaned,
718,高雄市岡山區和平國民小學,高雄市岡山區,22.782054,120.303827,False,True,False,,,,False,False,['座標遠離記錄縣市邊界（超出11公里以上）'],cleaned,
719,彌仁社區活動中心（備用）,高雄市彌陀區,22.78219078,120.2499242,False,True,False,,,,False,False,['座標遠離記錄縣市邊界（超出11公里以上）'],cleaned,
720,燕巢區民眾活動中心,高雄市燕巢區,22.782475,120.362246,False,True,False,,,,False,False,['座標遠離記錄縣市邊界（超出11公里以上）'],cleaned,
721,富豐社區活動中心,臺東縣臺東市,22.782915,121.161997,False,True,False,,,,False,False,['座標遠離記錄縣市邊界（超出11公里以上）'],cleaned,
722,高雄市彌陀區彌陀國民小學,高雄市彌陀區,22.783678,120.247781,False,True,False,,,,False,False,['座標遠離記錄縣市邊界（超出11公里以上）'],cleaned,
723,高雄市岡山區兆湘國民小學,高雄市岡山區,22.785034,120.28671,False,True,False,,,,False,False,['座標遠離記錄縣市邊界（超出11公里以上）'],cleaned,
724,高雄市立燕巢國民中學（備用）,高雄市燕巢區,22.785833,120.362845,False,True,False,,,,False,False,['座標遠離記錄縣市邊界（超出11公里以上）'],cleaned,
725,鹽埕過港社區康樂室（備用）,高雄市彌陀區,22.78790506,120.2425845,False,True,False,,,,False,False,['座標遠離記錄縣市邊界（超出11公里以上）'],cleaned,
726,屏東縣立泰山國民小學,屏東縣高樹鄉,22.788,120.6142,False,True,False,,,,False,False,['座標遠離記錄縣市邊界（超出11公里以上）'],cleaned,
727,燕巢區公所禮堂,高雄市燕巢區,22.78808,120.362079,False,True,False,,,,False,False,['座標遠離記錄縣市邊界（超出11公里以上）'],cleaned,
728,馬兒村辦公處含活動中心,屏東縣三地門鄉,22.78859227,120.6334763,False,True,False,,,,False,False,['座標遠離記錄縣市邊界（超出11公里以上）'],cleaned,
729,臺東棒球村第一棒球場,臺東縣臺東市,22.788893,121.128397,False,True,False,,,,False,False,['座標遠離記錄縣市邊界（超出11公里以上）'],cleaned,
730,高雄市立前峰國民中學,高雄市岡山區,22.789449,120.28842,False,True,False,,,,False,False,['座標遠離記錄縣市邊界（超出11公里以上）'],cleaned,
731,金陵營區,高雄市燕巢區,22.79,120.3598,False,True,False,,,,False,False,['座標遠離記錄縣市邊界（超出11公里以上）'],cleaned,
732,太平國民小學,臺東縣卑南鄉,22.790805,121.075772,False,True,False,,,,False,False,['座標遠離記錄縣市邊界（超出11公里以上）'],cleaned,
733,安招國民小學備用,高雄市燕巢區,22.7909,120.3378,False,True,False,,,,False,False,['座標遠離記錄縣市邊界（超出11公里以上）'],cleaned,
734,竹圍國小,高雄市岡山區,22.7914,120.2937,False,True,False,,,,False,False,['座標遠離記錄縣市邊界（超出11公里以上）'],cleaned,
735,高雄市岡山區岡山國民小學,高雄市岡山區,22.791424,120.293671,False,True,False,,,,False,False,['座標遠離記錄縣市邊界（超出11公里以上）'],cleaned,
736,臺東市老人文康活動中心,臺東縣臺東市,22.792025,121.184558,False,True,False,,,,False,False,['座標遠離記錄縣市邊界（超出11公里以上）'],cleaned,
737,高雄市岡山區後紅國民小學,高雄市岡山區,22.792904,120.30344,False,True,False,,,,False,False,['座標遠離記錄縣市邊界（超出11公里以上）'],cleaned,
738,高雄市岡山區前峰國民小學,高雄市岡山區,22.793052,120.283164,False,True,False,,,,False,False,['座標遠離記錄縣市邊界（超出11公里以上）'],cleaned,
739,泰安活動中心,臺東縣卑南鄉,22.793873,121.067371,False,True,False,,,,False,False,['座標遠離記錄縣市邊界（超出11公里以上）'],cleaned,
740,高雄市燕巢區燕巢國民小學（備用）,高雄市燕巢區,22.795258,120.36587,False,True,False,,,,False,False,['座標遠離記錄縣市邊界（超出11公里以上）'],cleaned,
741,高雄市彌陀區壽齡國民小學（備用）,高雄市彌陀區,22.795345,120.234509,False,True,False,,,,False,False,['座標遠離記錄縣市邊界（超出11公里以上）'],cleaned,
742,高雄市立岡山國民中學,高雄市岡山區,22.796169,120.291956,False,True,False,,,,False,False,['座標遠離記錄縣市邊界（超出11公里以上）'],cleaned,
743,安坡村辦公處含活動中心,屏東縣三地門鄉,22.7982,120.6378,False,True,False,,,,False,False,['座標遠離記錄縣市邊界（超出11公里以上）'],cleaned,
744,高雄市岡山區壽天國民小學,高雄市岡山區,22.798857,120.292481,False,True,False,,,,False,False,['座標遠離記錄縣市邊界（超出11公里以上）'],cleaned,
745,岡山區老人活動中心,高雄市岡山區,22.7989,120.2925,False,True,False,,,,False,False,['座標遠離記錄縣市邊界（超出11公里以上）'],cleaned,
746,公園西路14號公所廳舍,高雄市岡山區,22.799129,120.289345,False,True,False,,,,False,False,['座標遠離記錄縣市邊界（超出11公里以上）'],cleaned,
747,岡山榮譽國民之家,高雄市燕巢區,22.7993,120.3288,False,True,False,,,,False,False,['座標遠離記錄縣市邊界（超出11公里以上）'],cleaned,
748,高雄市永安區維新國民小學,高雄市永安區,22.80403364,120.2479631,False,True,False,,,,False,False,['座標遠離記錄縣市邊界（超出11公里以上）'],cleaned,
749,高雄市燕巢區金山國民小學（備用）,高雄市燕巢區,22.811802,120.398079,False,True,False,,,,False,False,['座標遠離記錄縣市邊界（超出11公里以上）'],cleaned,
750,富源村活動中心,臺東縣卑南鄉,22.812554,121.149689,False,True,False,,,,False,False,['座標遠離記錄縣市邊界（超出11公里以上）'],cleaned,
751,高雄市立嘉興國民中學,高雄市岡山區,22.816175,120.311911,False,True,False,,,,False,False,['座標遠離記錄縣市邊界（超出11公里以上）'],cleaned,
752,青山國小,屏東縣三地門鄉,22.817112,120.641368,False,True,False,,,,False,False,['座標遠離記錄縣市邊界（超出11公里以上）'],cleaned,
753,中正堂,高雄市永安區,22.8183,120.2253,False,True,False,,,,False,False,['座標遠離記錄縣市邊界（超出11公里以上）'],cleaned,
754,三和國小,屏東縣里港鄉,22.82,120.5064,False,True,False,,,,False,False,['座標遠離記錄縣市邊界（超出11公里以上）'],cleaned,
755,三地門鄉青山村辦公處,屏東縣三地門鄉,22.82065061,120.6406033,False,True,False,,,,False,False,['座標遠離記錄縣市邊界（超出11公里以上）'],cleaned,
756,土庫社區活動中心,屏東縣里港鄉,22.8209,120.5068,False,True,False,,,,False,False,['座標遠離記錄縣市邊界（超出11公里以上）'],cleaned,
757,高雄市永安區新港國民小學,高雄市永安區,22.82114749,120.2092311,False,True,False,,,,False,False,['座標遠離記錄縣市邊界（超出11公里以上）'],cleaned,
758,富山村活動中心,臺東縣卑南鄉,22.821416,121.190095,False,True,False,,,,False,False,['座標遠離記錄縣市邊界（超出11公里以上）'],cleaned,
759,富山國民小學,臺東縣卑南鄉,22.821416,121.190095,False,True,False,,,,False,False,['座標遠離記錄縣市邊界（超出11公里以上）'],cleaned,
760,高雄市岡山區嘉興國民小學,高雄市岡山區,22.821597,120.305292,False,True,False,,,,False,False,['座標遠離記錄縣市邊界（超出11公里以上）'],cleaned,
761,高雄市立永安國民中學,高雄市永安區,22.823171,120.240646,False,True,False,,,,False,False,['座標遠離記錄縣市邊界（超出11公里以上）'],cleaned,
762,高雄市路竹區北嶺國民小學,高雄市路竹區,22.823505,120.269765,False,True,False,,,,False,False,['座標遠離記錄縣市邊界（超出11公里以上）'],cleaned,
763,賓朗老人暨多功能活動中心,臺東縣卑南鄉,22.8239,121.090749,False,True,False,,,,False,False,['座標遠離記錄縣市邊界（超出11公里以上）'],cleaned,
764,利吉村活動中心,臺東縣卑南鄉,22.824082,121.134111,False,True,False,,,,False,False,['座標遠離記錄縣市邊界（超出11公里以上）'],cleaned,
765,高雄市岡山區華崗社區活動中心,高雄市岡山區,22.824142,120.322418,False,True,False,,,,False,False,['座標遠離記錄縣市邊界（超出11公里以上）'],cleaned,
766,屏東縣立高樹國民小學,屏東縣高樹鄉,22.8262,120.5992,False,True,False,,,,False,False,['座標遠離記錄縣市邊界（超出11公里以上）'],cleaned,
767,美農村活動中心,臺東縣卑南鄉,22.830504,121.093361,False,True,False,,,,False,False,['座標遠離記錄縣市邊界（超出11公里以上）'],cleaned,
768,高雄市永安區鹽田社區活動中心,高雄市永安區,22.833587,120.208428,False,True,False,,,,False,False,['座標遠離記錄縣市邊界（超出11公里以上）'],cleaned,
769,高雄市田寮區新興國民小學,高雄市田寮區,22.835015,120.369769,False,True,False,,,,False,False,['座標遠離記錄縣市邊界（超出11公里以上）'],cleaned,
770,大洲國中備用,高雄市旗山區,22.8354,120.4605,False,True,False,,,,False,False,['座標遠離記錄縣市邊界（超出11公里以上）'],cleaned,
771,東成國民小學,臺東縣卑南鄉,22.835594,121.082405,False,True,False,,,,False,False,['座標遠離記錄縣市邊界（超出11公里以上）'],cleaned,
772,高雄市立路竹區三埤國民小學,高雄市路竹區,22.8368,120.2801,False,True,False,,,,False,False,['座標遠離記錄縣市邊界（超出11公里以上）'],cleaned,
773,青葉國小,屏東縣三地門鄉,22.83769182,120.6391229,False,True,False,,,,False,False,['座標遠離記錄縣市邊界（超出11公里以上）'],cleaned,
774,青葉村辦公處含活動中心,屏東縣三地門鄉,22.838158,120.638444,False,True,False,,,,False,False,['座標遠離記錄縣市邊界（超出11公里以上）'],cleaned,
775,高雄市旗山區溪洲國民小學（備用）,高雄市旗山區,22.847646,120.465528,False,True,False,,,,False,False,['座標遠離記錄縣市邊界（超出11公里以上）'],cleaned,
776,屏東縣立舊寮國民小學,屏東縣高樹鄉,22.8486,120.6101,False,True,False,,,,False,False,['座標遠離記錄縣市邊界（超出11公里以上）'],cleaned,
777,合天大道院,高雄市旗山區,22.8489,120.4734,False,True,False,,,,False,False,['座標遠離記錄縣市邊界（超出11公里以上）'],cleaned,
778,高雄市阿蓮區復安國民小學（備用）,高雄市阿蓮區,22.849101,120.324142,False,True,False,,,,False,False,['座標遠離記錄縣市邊界（超出11公里以上）'],cleaned,
779,鯤洲社區多功能活動中心,高雄市旗山區,22.84953,120.476208,False,True,False,,,,False,False,['座標遠離記錄縣市邊界（超出11公里以上）'],cleaned,
780,高雄市美濃區吉東國民小學,高雄市美濃區,22.851314,120.540959,False,True,False,,,,False,False,['座標遠離記錄縣市邊界（超出11公里以上）'],cleaned,
781,路竹老人活動中心,高雄市路竹區,22.8543,120.2546,False,True,False,,,,False,False,['座標遠離記錄縣市邊界（超出11公里以上）'],cleaned,
782,高雄市立路竹高級中學,高雄市路竹區,22.855385,120.25221,False,True,False,,,,False,False,['座標遠離記錄縣市邊界（超出11公里以上）'],cleaned,
783,上洲社區活動中心,高雄市旗山區,22.8565,120.4735,False,True,False,,,,False,False,['座標遠離記錄縣市邊界（超出11公里以上）'],cleaned,
784,廣福社區活動中心,高雄市旗山區,22.8575,120.5049,False,True,False,,,,False,False,['座標遠離記錄縣市邊界（超出11公里以上）'],cleaned,
785,初鹿國民小學,臺東縣卑南鄉,22.860167,121.092081,False,True,False,,,,False,False,['座標遠離記錄縣市邊界（超出11公里以上）'],cleaned,
786,初鹿村多功能暨老人活動中心,臺東縣卑南鄉,22.860646,121.092522,False,True,False,,,,False,False,['座標遠離記錄縣市邊界（超出11公里以上）'],cleaned,
787,高雄市路竹區蔡文國民小學,高雄市路竹區,22.861515,120.256002,False,True,False,,,,False,False,['座標遠離記錄縣市邊界（超出11公里以上）'],cleaned,
788,高雄市立路竹區竹滬國民小學,高雄市路竹區,22.8625,120.2304,False,True,False,,,,False,False,['座標遠離記錄縣市邊界（超出11公里以上）'],cleaned,
789,高雄市路竹區路竹國民小學,高雄市路竹區,22.862524,120.230427,False,True,False,,,,False,False,['座標遠離記錄縣市邊界（超出11公里以上）'],cleaned,
790,屏東縣立新豐國民小學,屏東縣高樹鄉,22.8634,120.6343,False,True,False,,,,False,False,['座標遠離記錄縣市邊界（超出11公里以上）'],cleaned,
791,龍山國小,高雄市美濃區,22.864611,120.555856,False,True,False,,,,False,False,['座標遠離記錄縣市邊界（超出11公里以上）'],cleaned,
793,高雄市路竹區大社國民小學,高雄市路竹區,22.867067,120.265351,False,True,False,,,,False,False,['座標遠離記錄縣市邊界（超出11公里以上）'],cleaned,
794,高雄市立一甲國民中學學生,高雄市路竹區,22.868822,120.271882,False,True,False,,,,False,False,['座標遠離記錄縣市邊界（超出11公里以上）'],cleaned,
795,高雄市立路竹區下坑國民小學備用,高雄市路竹區,22.8691,120.2908,False,True,False,,,,False,False,['座標遠離記錄縣市邊界（超出11公里以上）'],cleaned,
796,田寮區公所3樓大禮堂,高雄市田寮區,22.8699,120.3594,False,True,False,,,,False,False,['座標遠離記錄縣市邊界（超出11公里以上）'],cleaned,
797,竹子門水利工作站,高雄市美濃區,22.870284,120.588802,False,True,False,,,,False,False,['座標遠離記錄縣市邊界（超出11公里以上）'],cleaned,
798,都蘭活動中心,臺東縣東河鄉,22.876498,121.227556,False,True,False,,,,False,False,['座標遠離記錄縣市邊界（超出11公里以上）'],cleaned,
799,高雄市美濃區吉洋國民小學,高雄市美濃區,22.876682,120.535858,False,True,False,,,,False,False,['座標遠離記錄縣市邊界（超出11公里以上）'],cleaned,
800,高雄市田寮區崇德國民小學,高雄市田寮區,22.877635,120.379682,False,True,False,,,,False,False,['座標遠離記錄縣市邊界（超出11公里以上）'],cleaned,
801,高雄市立龍肚國民中學,高雄市美濃區,22.877733,120.571037,False,True,False,,,,False,False,['座標遠離記錄縣市邊界（超出11公里以上）'],cleaned,
802,都蘭國小,臺東縣東河鄉,22.877955,121.226932,False,True,False,,,,False,False,['座標遠離記錄縣市邊界（超出11公里以上）'],cleaned,
803,湖東社區活動中心,高雄市湖內區,22.878344,120.246231,False,True,False,,,,False,False,['座標遠離記錄縣市邊界（超出11公里以上）'],cleaned,
804,新寮社區活動中心,高雄市六龜區,22.8806,120.6145,False,True,False,,,,False,False,['座標遠離記錄縣市邊界（超出11公里以上）'],cleaned,
805,樹人醫護管理專科學校,高雄市路竹區,22.8827,120.2611,False,True,False,,,,False,False,['座標遠離記錄縣市邊界（超出11公里以上）'],cleaned,
806,高雄市美濃區福安國民小學,高雄市美濃區,22.882868,120.533938,False,True,False,,,,False,False,['座標遠離記錄縣市邊界（超出11公里以上）'],cleaned,
807,阿蓮區公所3樓會議室,高雄市阿蓮區,22.8832,120.3275,False,True,False,,,,False,False,['座標遠離記錄縣市邊界（超出11公里以上）'],cleaned,
808,高雄市阿蓮區阿蓮國民小學（備 用）,高雄市阿蓮區,22.88323,120.329869,False,True,False,,,,False,False,['座標遠離記錄縣市邊界（超出11公里以上）'],cleaned,
809,高雄市美濃區中壇國民小學,高雄市美濃區,22.884022,120.53057,False,True,False,,,,False,False,['座標遠離記錄縣市邊界（超出11公里以上）'],cleaned,
811,靈山寺,高雄市旗山區,22.8847,120.4784,False,True,False,,,,False,False,['座標遠離記錄縣市邊界（超出11公里以上）'],cleaned,
812,高雄市立阿蓮國民中學（備用）,高雄市阿蓮區,22.88532,120.326138,False,True,False,,,,False,False,['座標遠離記錄縣市邊界（超出11公里以上）'],cleaned,
813,高雄市美濃區龍肚國民小學,高雄市美濃區,22.885381,120.579605,False,True,False,,,,False,False,['座標遠離記錄縣市邊界（超出11公里以上）'],cleaned,
814,高雄市茂林區茂林國民小學,高雄市茂林區,22.8865,120.6643,False,True,False,,,,False,False,['座標遠離記錄縣市邊界（超出11公里以上）'],cleaned,
815,鳳山區農會茂林辦事處,高雄市茂林區,22.8869,120.6633,False,True,False,,,,False,False,['座標遠離記錄縣市邊界（超出11公里以上）'],cleaned,
816,茂林基督長老教會,高雄市茂林區,22.8871,120.6661,False,True,False,,,,False,False,['座標遠離記錄縣市邊界（超出11公里以上）'],cleaned,
817,高雄市湖內區大湖國民小學,高雄市湖內區,22.887757,120.244517,False,True,False,,,,False,False,['座標遠離記錄縣市邊界（超出11公里以上）'],cleaned,
818,高雄市其山區旗山國小（備用）,高雄市旗山區,22.888297,120.480651,False,True,False,,,,False,False,['座標遠離記錄縣市邊界（超出11公里以上）'],cleaned,
819,旗山區公所,高雄市旗山區,22.8886,120.4836,False,True,False,,,,False,False,['座標遠離記錄縣市邊界（超出11公里以上）'],cleaned,
820,高雄市茄萣區成功國民小學,高雄市茄萣區,22.888687,120.186031,False,True,False,,,,False,False,['座標遠離記錄縣市邊界（超出11公里以上）'],cleaned,
821,新威天台聖宮,高雄市六龜區,22.8889,120.6166,False,True,False,,,,False,False,['座標遠離記錄縣市邊界（超出11公里以上）'],cleaned,
822,大津登山訓練中心,高雄市六龜區,22.889,120.6471,False,True,False,,,,False,False,['座標遠離記錄縣市邊界（超出11公里以上）'],cleaned,
823,湄州里活動中心,高雄市旗山區,22.8898,120.4811,False,True,False,,,,False,False,['座標遠離記錄縣市邊界（超出11公里以上）'],cleaned,
824,茄萣老人活動中心,高雄市茄萣區,22.8911,120.186,False,True,False,,,,False,False,['座標遠離記錄縣市邊界（超出11公里以上）'],cleaned,
825,竹峰里辦公處,高雄市旗山區,22.8912,120.4786,False,True,False,,,,False,False,['座標遠離記錄縣市邊界（超出11公里以上）'],cleaned,
826,大津社區活動中心,高雄市六龜區,22.891873,120.647154,False,True,False,,,,False,False,['座標遠離記錄縣市邊界（超出11公里以上）'],cleaned,
827,紅葉村活動中心,臺東縣延平鄉,22.893619,121.063062,False,True,False,,,,False,False,['座標遠離記錄縣市邊界（超出11公里以上）'],cleaned,
828,古亭社區活動中心,高雄市田寮區,22.89410114,120.4023526,False,True,False,,,,False,False,['座標遠離記錄縣市邊界（超出11公里以上）'],cleaned,
829,台灣基督長老教會海埔教會,高雄市湖內區,22.8944,120.2234,False,True,False,,,,False,False,['座標遠離記錄縣市邊界（超出11公里以上）'],cleaned,
830,美濃區老人文康活動中心,高雄市美濃區,22.8946,120.5427,False,True,False,,,,False,False,['座標遠離記錄縣市邊界（超出11公里以上）'],cleaned,
831,高雄市立美濃國民中學,高雄市美濃區,22.894745,120.5435,False,True,False,,,,False,False,['座標遠離記錄縣市邊界（超出11公里以上）'],cleaned,
832,美濃區公所,高雄市美濃區,22.8948,120.5418,False,True,False,,,,False,False,['座標遠離記錄縣市邊界（超出11公里以上）'],cleaned,
833,高雄市阿蓮區中路國民小學（備用）,高雄市阿蓮區,22.89493,120.298575,False,True,False,,,,False,False,['座標遠離記錄縣市邊界（超出11公里以上）'],cleaned,
834,興隆國小,臺東縣東河鄉,22.895301,121.24875,False,True,False,,,,False,False,['座標遠離記錄縣市邊界（超出11公里以上）'],cleaned,
835,鸞山村活動中心,臺東縣延平鄉,22.899002,121.151603,False,True,False,,,,False,False,['座標遠離記錄縣市邊界（超出11公里以上）'],cleaned,
836,高雄市美濃區美濃國民小學,高雄市美濃區,22.899581,120.543255,False,True,False,,,,False,False,['座標遠離記錄縣市邊界（超出11公里以上）'],cleaned,
837,高雄市六龜區新威國民小學,高雄市六龜區,22.900102,120.627629,False,True,False,,,,False,False,['座標遠離記錄縣市邊界（超出11公里以上）'],cleaned,
838,高雄市美濃區東門國民小學,高雄市美濃區,22.900489,120.553201,False,True,False,,,,False,False,['座標遠離記錄縣市邊界（超出11公里以上）'],cleaned,
839,永和社區活動中心備用,高雄市旗山區,22.9006,120.4782,False,True,False,,,,False,False,['座標遠離記錄縣市邊界（超出11公里以上）'],cleaned,
840,新威社區活動中心,高雄市六龜區,22.9025,120.6284,False,True,False,,,,False,False,['座標遠離記錄縣市邊界（超出11公里以上）'],cleaned,
841,桃源村活動中心,臺東縣延平鄉,22.902922,121.084336,False,True,False,,,,False,False,['座標遠離記錄縣市邊界（超出11公里以上）'],cleaned,
842,高雄市茄萣區茄萣國民小學,高雄市茄萣區,22.903281,120.181985,False,True,False,,,,False,False,['座標遠離記錄縣市邊界（超出11公里以上）'],cleaned,
843,臺南市關廟區崇和國小,臺南市關廟區,22.904,120.3547,False,True,False,,,,False,False,['座標遠離記錄縣市邊界（超出11公里以上）'],cleaned,
844,龍田社區活動中心,臺東縣鹿野鄉,22.9042,121.1206,False,True,False,,,,False,False,['座標遠離記錄縣市邊界（超出11公里以上）'],cleaned,
845,龍田國小,臺東縣鹿野鄉,22.9042,121.1243,False,True,False,,,,False,False,['座標遠離記錄縣市邊界（超出11公里以上）'],cleaned,
846,和平社區活動中心,臺東縣鹿野鄉,22.9051,121.1192,False,True,False,,,,False,False,['座標遠離記錄縣市邊界（超出11公里以上）'],cleaned,
847,茄萣區公所大禮堂,高雄市茄萣區,22.9065,120.1825,False,True,False,,,,False,False,['座標遠離記錄縣市邊界（超出11公里以上）'],cleaned,
848,高雄市立茄萣國民中學,高雄市茄萣區,22.906889,120.181014,False,True,False,,,,False,False,['座標遠離記錄縣市邊界（超出11公里以上）'],cleaned,
849,鹿野國中,臺東縣鹿野鄉,22.907,121.1352,False,True,False,,,,False,False,['座標遠離記錄縣市邊界（超出11公里以上）'],cleaned,
850,財團法人一貫道興毅純陽聖道院,高雄市湖內區,22.907202,120.21789,False,True,False,,,,False,False,['座標遠離記錄縣市邊界（超出11公里以上）'],cleaned,
851,新興社區活動中心,高雄市六龜區,22.9076,120.6335,False,True,False,,,,False,False,['座標遠離記錄縣市邊界（超出11公里以上）'],cleaned,
852,高雄市立湖內國民中學,高雄市湖內區,22.907722,120.227397,False,True,False,,,,False,False,['座標遠離記錄縣市邊界（超出11公里以上）'],cleaned,
853,中圳社區活動中心,高雄市美濃區,22.908018,120.547647,False,True,False,,,,False,False,['座標遠離記錄縣市邊界（超出11公里以上）'],cleaned,
854,中正堂二樓,高雄市湖內區,22.9091,120.2129,False,True,False,,,,False,False,['座標遠離記錄縣市邊界（超出11公里以上）'],cleaned,
855,鹿野國小,臺東縣鹿野鄉,22.9094,121.137,False,True,False,,,,False,False,['座標遠離記錄縣市邊界（超出11公里以上）'],cleaned,
856,白雲社區活動中心,高雄市茄萣區,22.9096,120.1851,False,True,False,,,,False,False,['座標遠離記錄縣市邊界（超出11公里以上）'],cleaned,
857,高雄市茂林區多納國民小學,高雄市茂林區,22.9101,120.7159,False,True,False,,,,False,False,['座標遠離記錄縣市邊界（超出11公里以上）'],cleaned,
858,多納里社區活動中心,高雄市茂林區,22.9105,120.7167,False,True,False,,,,False,False,['座標遠離記錄縣市邊界（超出11公里以上）'],cleaned,
859,萬山里避難屋,高雄市茂林區,22.911115,120.682514,False,True,False,,,,False,False,['座標遠離記錄縣市邊界（超出11公里以上）'],cleaned,
860,高雄市茄萣區砂崙國民小學,高雄市茄萣區,22.91319,120.182354,False,True,False,,,,False,False,['座標遠離記錄縣市邊界（超出11公里以上）'],cleaned,
861,臺南市歸仁區大潭國小,臺南市歸仁區,22.9138,120.2718,False,True,False,,,,False,False,['座標遠離記錄縣市邊界（超出11公里以上）'],cleaned,
862,鹿野鄉公所,臺東縣鹿野鄉,22.9143,121.1362,False,True,False,,,,False,False,['座標遠離記錄縣市邊界（超出11公里以上）'],cleaned,
863,廣林里社區活動中心,高雄市美濃區,22.916916,120.579295,False,True,False,,,,False,False,['座標遠離記錄縣市邊界（超出11公里以上）'],cleaned,
864,臺南市關廟區文和國小,臺南市關廟區,22.917,120.3428,False,True,False,,,,False,False,['座標遠離記錄縣市邊界（超出11公里以上）'],cleaned,
865,內門紫竹寺香客大樓,高雄市內門區,22.9172,120.4554,False,True,False,,,,False,False,['座標遠離記錄縣市邊界（超出11公里以上）'],cleaned,
866,高雄市美濃區廣興國民小學,高雄市美濃區,22.917251,120.567922,False,True,False,,,,False,False,['座標遠離記錄縣市邊界（超出11公里以上）'],cleaned,
867,高雄市內門區觀亭國民小學,高雄市內門區,22.918343,120.453734,False,True,False,,,,False,False,['座標遠離記錄縣市邊界（超出11公里以上）'],cleaned,
868,高雄市內門區西門國民小學,高雄市內門區,22.918619,120.426716,False,True,False,,,,False,False,['座標遠離記錄縣市邊界（超出11公里以上）'],cleaned,
869,高雄市立內門國民中學,高雄市內門區,22.921882,120.453517,False,True,False,,,,False,False,['座標遠離記錄縣市邊界（超出11公里以上）'],cleaned,
870,華山營區,高雄市旗山區,22.9266,120.5039,False,True,False,,,,False,False,['座標遠離記錄縣市邊界（超出11公里以上）'],cleaned,
871,臺南市龍崎區大坪里民活動中心,臺南市龍崎區,22.9268,120.3921,False,True,False,,,,False,False,['座標遠離記錄縣市邊界（超出11公里以上）'],cleaned,
872,永康村鄉立幼兒園,臺東縣延平鄉,22.927897,121.115208,False,True,False,,,,False,False,['座標遠離記錄縣市邊界（超出11公里以上）'],cleaned,
873,隆昌村辦公處活動中心,臺東縣東河鄉,22.928015,121.269255,False,True,False,,,,False,False,['座標遠離記錄縣市邊界（超出11公里以上）'],cleaned,
874,臺南市歸仁區沙崙國中,臺南市歸仁區,22.9287,120.2816,False,True,False,,,,False,False,['座標遠離記錄縣市邊界（超出11公里以上）'],cleaned,
875,臺南市龍崎區牛埔里里民活動中心,臺南市龍崎區,22.9313,120.4096,False,True,False,,,,False,False,['座標遠離記錄縣市邊界（超出11公里以上）'],cleaned,
876,永安社區活動中心,臺東縣鹿野鄉,22.9316,121.1296,False,True,False,,,,False,False,['座標遠離記錄縣市邊界（超出11公里以上）'],cleaned,
877,臺南市南區南寧中學,臺南市南區,22.9318,120.1834,False,True,False,,,,False,False,['座標遠離記錄縣市邊界（超出11公里以上）'],cleaned,
878,臺南市南區灣裡聯合里活動中心,臺南市南區,22.9323,120.1808,False,True,False,,,,False,False,['座標遠離記錄縣市邊界（超出11公里以上）'],cleaned,
879,臺南市南區省躬國小,臺南市南區,22.9325,120.1804,False,True,False,,,,False,False,['座標遠離記錄縣市邊界（超出11公里以上）'],cleaned,
880,永昌社區活動中心,臺東縣鹿野鄉,22.9328,121.1308,False,True,False,,,,False,False,['座標遠離記錄縣市邊界（超出11公里以上）'],cleaned,
881,中正社區活動中心,高雄市旗山區,22.9329,120.5022,False,True,False,,,,False,False,['座標遠離記錄縣市邊界（超出11公里以上）'],cleaned,
882,永安國小,臺東縣鹿野鄉,22.9336,121.1283,False,True,False,,,,False,False,['座標遠離記錄縣市邊界（超出11公里以上）'],cleaned,
883,臺南市關廟區深坑國小,臺南市關廟區,22.9371,120.3353,False,True,False,,,,False,False,['座標遠離記錄縣市邊界（超出11公里以上）'],cleaned,
884,鹿野鄉立托兒所,臺東縣鹿野鄉,22.9403,121.1515,False,True,False,,,,False,False,['座標遠離記錄縣市邊界（超出11公里以上）'],cleaned,
885,南海紫竹寺香客大樓,高雄市內門區,22.9417,120.4613,False,True,False,,,,False,False,['座標遠離記錄縣市邊界（超出11公里以上）'],cleaned,
886,臺南市仁德區臺南都會公園管理中心,臺南市仁德區,22.9437,120.2211,False,True,False,,,,False,False,['座標遠離記錄縣市邊界（超出11公里以上）'],cleaned,
887,臺南市仁德區後壁里老人文康活動中心,臺南市仁德區,22.9475,120.2532,False,True,False,,,,False,False,['座標遠離記錄縣市邊界（超出11公里以上）'],cleaned,
888,月美社區活動中心,高雄市杉林區,22.948034,120.528674,False,True,False,,,,False,False,['座標遠離記錄縣市邊界（超出11公里以上）'],cleaned,
889,臺南市龍崎區龍船里里民活動中心,臺南市龍崎區,22.952,120.4213,False,True,False,,,,False,False,['座標遠離記錄縣市邊界（超出11公里以上）'],cleaned,
890,瑞源社區活動中心,臺東縣鹿野鄉,22.955,121.1562,False,True,False,,,,False,False,['座標遠離記錄縣市邊界（超出11公里以上）'],cleaned,
891,瑞隆社區活動中心,臺東縣鹿野鄉,22.955,121.1562,False,True,False,,,,False,False,['座標遠離記錄縣市邊界（超出11公里以上）'],cleaned,
892,永富社區活動中心景義國小,高雄市內門區,22.956,120.4942,False,True,False,,,,False,False,['座標遠離記錄縣市邊界（超出11公里以上）'],cleaned,
893,高雄市內門區內門國民小學,高雄市內門區,22.956009,120.470326,False,True,False,,,,False,False,['座標遠離記錄縣市邊界（超出11公里以上）'],cleaned,
894,瑞源國小,臺東縣鹿野鄉,22.9578,121.1554,False,True,False,,,,False,False,['座標遠離記錄縣市邊界（超出11公里以上）'],cleaned,
895,高雄市杉林區月美國民小學,高雄市杉林區,22.958186,120.535203,False,True,False,,,,False,False,['座標遠離記錄縣市邊界（超出11公里以上）'],cleaned,
896,臺南市關廟區五甲國小,臺南市關廟區,22.9583,120.3343,False,True,False,,,,False,False,['座標遠離記錄縣市邊界（超出11公里以上）'],cleaned,
897,臺南市關廟社區活動中心,臺南市關廟區,22.9589,120.3242,False,True,False,,,,False,False,['座標遠離記錄縣市邊界（超出11公里以上）'],cleaned,
898,大林社區活動中心備用,高雄市旗山區,22.9591,120.5147,False,True,False,,,,False,False,['座標遠離記錄縣市邊界（超出11公里以上）'],cleaned,
899,臺南市關廟區關廟國中,臺南市關廟區,22.9608,120.3247,False,True,False,,,,False,False,['座標遠離記錄縣市邊界（超出11公里以上）'],cleaned,
900,臺南市南區區公所,臺南市南區,22.9609,120.1884,False,True,False,,,,False,False,['座標遠離記錄縣市邊界（超出11公里以上）'],cleaned,
901,臺南市南區龍崗國小,臺南市南區,22.9614,120.1696,False,True,False,,,,False,False,['座標遠離記錄縣市邊界（超出11公里以上）'],cleaned,
902,臺南市東區大智里活動中心,臺南市東區,22.9615,120.2303,False,True,False,,,,False,False,['座標遠離記錄縣市邊界（超出11公里以上）'],cleaned,
903,臺南市歸仁區紅瓦厝國小,臺南市歸仁區,22.9617,120.2987,False,True,False,,,,False,False,['座標遠離記錄縣市邊界（超出11公里以上）'],cleaned,
904,尚德國小村辦公室,臺東縣東河鄉,22.9627,121.2407,False,True,False,,,,False,False,['座標遠離記錄縣市邊界（超出11公里以上）'],cleaned,
905,臺南市南區永華國小,臺南市南區,22.9631,120.1886,False,True,False,,,,False,False,['座標遠離記錄縣市邊界（超出11公里以上）'],cleaned,
906,臺南市關廟區關廟國小,臺南市關廟區,22.9637,120.3261,False,True,False,,,,False,False,['座標遠離記錄縣市邊界（超出11公里以上）'],cleaned,
907,高雄市杉林區大愛民族國民小學,高雄市杉林區,22.963823,120.538829,False,True,False,,,,False,False,['座標遠離記錄縣市邊界（超出11公里以上）'],cleaned,
908,臺南市歸仁區歸南國小,臺南市歸仁區,22.9642,120.2883,False,True,False,,,,False,False,['座標遠離記錄縣市邊界（超出11公里以上）'],cleaned,
909,臺南市龍崎區民活動中心,臺南市龍崎區,22.9642,120.3595,False,True,False,,,,False,False,['座標遠離記錄縣市邊界（超出11公里以上）'],cleaned,
910,臺南市立龍崎國民小學,臺南市龍崎區,22.964425,120.35906,False,True,False,,,,False,False,['座標遠離記錄縣市邊界（超出11公里以上）'],cleaned,
911,臺南市南區明興社區活動中心,臺南市南區,22.9651,120.1923,False,True,False,,,,False,False,['座標遠離記錄縣市邊界（超出11公里以上）'],cleaned,
912,臺南市龍崎區老人文康活中心,臺南市龍崎區,22.9651,120.3603,False,True,False,,,,False,False,['座標遠離記錄縣市邊界（超出11公里以上）'],cleaned,
913,大愛活動中心,高雄市杉林區,22.966082,120.545574,False,True,False,,,,False,False,['座標遠離記錄縣市邊界（超出11公里以上）'],cleaned,
914,月眉社區活動中心,高雄市杉林區,22.96649744,120.5354386,False,True,False,,,,False,False,['座標遠離記錄縣市邊界（超出11公里以上）'],cleaned,
915,臺南市歸仁區公所,臺南市歸仁區,22.9669,120.294,False,True,False,,,,False,False,['座標遠離記錄縣市邊界（超出11公里以上）'],cleaned,
916,臺南市南區開南里活動中心,臺南市南區,22.967,120.1856,False,True,False,,,,False,False,['座標遠離記錄縣市邊界（超出11公里以上）'],cleaned,
917,臺南市仁德區仁義里運動公園育樂中心,臺南市仁德區,22.9675,120.2585,False,True,False,,,,False,False,['座標遠離記錄縣市邊界（超出11公里以上）'],cleaned,
918,上平社區活動中心,高雄市杉林區,22.96796903,120.557561,False,True,False,,,,False,False,['座標遠離記錄縣市邊界（超出11公里以上）'],cleaned,
919,臺南市龍崎區龍崎國民中學,臺南市龍崎區,22.9683,120.3608,False,True,False,,,,False,False,['座標遠離記錄縣市邊界（超出11公里以上）'],cleaned,
920,高雄市立杉林國民中學,高雄市杉林區,22.968577,120.540834,False,True,False,,,,False,False,['座標遠離記錄縣市邊界（超出11公里以上）'],cleaned,
921,東河鄉公所2樓大會議室,臺東縣東河鄉,22.969096,121.302729,False,True,False,,,,False,False,['座標遠離記錄縣市邊界（超出11公里以上）'],cleaned,
922,臺南市歸仁區歸仁國中,臺南市歸仁區,22.9696,120.2939,False,True,False,,,,False,False,['座標遠離記錄縣市邊界（超出11公里以上）'],cleaned,
923,臺南市南區白雪社區活動中心,臺南市南區,22.9697,120.1888,False,True,False,,,,False,False,['座標遠離記錄縣市邊界（超出11公里以上）'],cleaned,
924,臺南市歸仁區歸仁國小,臺南市歸仁區,22.9698,120.2966,False,True,False,,,,False,False,['座標遠離記錄縣市邊界（超出11公里以上）'],cleaned,
925,武陵村活動中心,臺東縣延平鄉,22.969833,121.117842,False,True,False,,,,False,False,['座標遠離記錄縣市邊界（超出11公里以上）'],cleaned,
926,臺南市歸仁區文化國小,臺南市歸仁區,22.9708,120.2891,False,True,False,,,,False,False,['座標遠離記錄縣市邊界（超出11公里以上）'],cleaned,
927,臺南市歸仁區歸仁里活動中心,臺南市歸仁區,22.9708,120.2984,False,True,False,,,,False,False,['座標遠離記錄縣市邊界（超出11公里以上）'],cleaned,
928,臺南市南區大忠大林社區活動中心,臺南市南區,22.9726,120.2125,False,True,False,,,,False,False,['座標遠離記錄縣市邊界（超出11公里以上）'],cleaned,
929,臺南市仁德區公所,臺南市仁德區,22.973,120.2517,False,True,False,,,,False,False,['座標遠離記錄縣市邊界（超出11公里以上）'],cleaned,
930,瑞源國中,臺東縣鹿野鄉,22.9742,121.1567,False,True,False,,,,False,False,['座標遠離記錄縣市邊界（超出11公里以上）'],cleaned,
931,臺南市南區府南里活動中心,臺南市南區,22.9744,120.1953,False,True,False,,,,False,False,['座標遠離記錄縣市邊界（超出11公里以上）'],cleaned,
932,高雄市內門區木柵國民小學,高雄市內門區,22.975346,120.467861,False,True,False,,,,False,False,['座標遠離記錄縣市邊界（超出11公里以上）'],cleaned,
933,臺南市東區崇德里活動中心,臺南市東區,22.9757,120.2281,False,True,False,,,,False,False,['座標遠離記錄縣市邊界（超出11公里以上）'],cleaned,
934,臺南市南區田寮社區活動中心,臺南市南區,22.9765,120.1955,False,True,False,,,,False,False,['座標遠離記錄縣市邊界（超出11公里以上）'],cleaned,
935,高雄市杉林區上平國民小學,高雄市杉林區,22.976853,120.544072,False,True,False,,,,False,False,['座標遠離記錄縣市邊界（超出11公里以上）'],cleaned,
936,臺南市東區和平里活動中心,臺南市東區,22.977,120.2326,False,True,False,,,,False,False,['座標遠離記錄縣市邊界（超出11公里以上）'],cleaned,
937,臺南市南區國宅社區活動中心,臺南市南區,22.9771,120.1879,False,True,False,,,,False,False,['座標遠離記錄縣市邊界（超出11公里以上）'],cleaned,
938,臺南市關廟區新光國小,臺南市關廟區,22.9772,120.3595,False,True,False,,,,False,False,['座標遠離記錄縣市邊界（超出11公里以上）'],cleaned,
939,臺南市安平區漁光里活動中心,臺南市安平區,22.977225,120.159968,False,True,False,,,,False,False,['座標遠離記錄縣市邊界（超出11公里以上）'],cleaned,
940,日光小林社區活動中心,高雄市杉林區,22.977268,120.556689,False,True,False,,,,False,False,['座標遠離記錄縣市邊界（超出11公里以上）'],cleaned,
941,永吉社區活動中心,高雄市內門區,22.9774,120.498,False,True,False,,,,False,False,['座標遠離記錄縣市邊界（超出11公里以上）'],cleaned,
942,臺南市南區新興國中,臺南市南區,22.9778,120.1876,False,True,False,,,,False,False,['座標遠離記錄縣市邊界（超出11公里以上）'],cleaned,
943,木柵社區活動中心,高雄市內門區,22.978,120.4677,False,True,False,,,,False,False,['座標遠離記錄縣市邊界（超出11公里以上）'],cleaned,
944,臺南市南區體育公園,臺南市南區,22.9785,120.2068,False,True,False,,,,False,False,['座標遠離記錄縣市邊界（超出11公里以上）'],cleaned,
946,瑞豐國小,臺東縣鹿野鄉,22.9791,121.1369,False,True,False,,,,False,False,['座標遠離記錄縣市邊界（超出11公里以上）'],cleaned,
947,臺南市南區大成國中,臺南市南區,22.9796,120.198,False,True,False,,,,False,False,['座標遠離記錄縣市邊界（超出11公里以上）'],cleaned,
948,臺南市東區崇學國民小學操場,臺南市東區,22.9796,120.2234,False,True,False,,,,False,False,['座標遠離記錄縣市邊界（超出11公里以上）'],cleaned,
949,臺南市東區復興里活動中心,臺南市東區,22.9803,120.2416,False,True,False,,,,False,False,['座標遠離記錄縣市邊界（超出11公里以上）'],cleaned,
950,臺南市東區區公所,臺南市東區,22.980519,120.224015,False,True,False,,,,False,False,['座標遠離記錄縣市邊界（超出11公里以上）'],cleaned,
951,臺南市東區德光里活動中心,臺南市東區,22.9806,120.2188,False,True,False,,,,False,False,['座標遠離記錄縣市邊界（超出11公里以上）'],cleaned,
952,臺南市南區台南高商,臺南市南區,22.9811,120.202,False,True,False,,,,False,False,['座標遠離記錄縣市邊界（超出11公里以上）'],cleaned,
953,臺南市東區虎尾里活動中心,臺南市東區,22.9815,120.2353,False,True,False,,,,False,False,['座標遠離記錄縣市邊界（超出11公里以上）'],cleaned,
